time,timestamp,recordtime,lat,long,alt,speed,course,verticalAccuracy,horizontalAccuracy,locTimeStamp,accelerationX,accelerationY,accelerationZ,HeadingX,HeadingY,HeadingZ,TrueHeading,MagneticHeading,HeadingAccuracy,RotationX,RotationY,RotationZ,motionYaw,motionRoll,motionPitch,motionRotationRateX,motionRotationRateY,motionRotationRateZ,motionUserAccelerationX,motionUserAccelerationY,motionUserAccelerationZ,DeviceOrientation
2014-02-24 18:17:01.814,1,0.1,43.61254,3.912179,24.9822,3.527539,171.0768,9,5,1393262220,0.1624451,-0.393219,-0.9277954,-75.68192,-121.0272,7.307053,134.9848,134.2765,25,-0.03307406,0.01997424,-0.02162886,0.04975956,0.1873391,0.4956875,-0.04867782,0.09143406,-0.07113435,0.03090357,0.03079704,-0.06474977,1
2014-02-24 18:17:01.919,2,0.2,43.61251,3.912186,24.62286,3.137119,171.3232,9,5,1393262221,0.1526489,-0.3698273,-0.8959045,-75.02324,-121.8938,8.547379,135.6398,134.9316,25,-0.001269529,-0.01582051,0.007180415,0.04920786,0.1883696,0.4946157,-0.04773393,0.01021542,-0.02340836,0.02669811,0.04280869,-0.07722091,1
2014-02-24 18:17:02.041,3,0.3,43.61251,3.912186,24.62286,3.137119,171.3232,9,5,1393262221,0.1516724,-0.3737183,-0.8851624,-75.68192,-122.4355,10.12598,136.7836,136.0753,25,0.104222,-0.005625395,0.04680666,0.04961919,0.1875775,0.4913193,-0.01601472,-0.02559091,0.005389,-0.001975933,0.07857053,-0.06155042,1
2014-02-24 18:17:02.137,4,0.4,43.61251,3.912186,24.62286,3.137119,171.3232,9,5,1393262221,0.1516724,-0.3737183,-0.8851624,-73.87055,-124.1145,10.63337,138.414,137.7058,25,0.1915718,0.06977881,0.03752501,0.0502964,0.1874502,0.495316,0.1768267,0.06000848,0.0357336,-0.009447501,0.1104721,-0.0246927,1
2014-02-24 18:17:02.350,5,0.5,43.61251,3.912186,24.62286,3.137119,171.3232,9,5,1393262221,0.1802673,-0.4265594,-0.929306,-73.1021,-125.1977,11.30992,139.2524,138.5441,25,0.04213707,0.1245544,-0.05594689,0.04855754,0.191368,0.4938231,0.02730176,0.1147697,-0.05774975,0.004992002,0.07667207,-0.04661867,1
2014-02-24 18:17:02.505,6,0.6,43.61251,3.912186,24.62286,3.137119,171.3232,9,5,1393262221,0.1805878,-0.4337006,-0.952652,-72.38853,-124.9269,11.47904,139.5627,138.8544,25,-0.01102469,0.09722189,-0.02099769,0.04810394,0.193461,0.4914626,-0.02592345,0.08743613,-0.02281266,0.01076569,0.04535646,-0.06410977,1
2014-02-24 18:17:02.629,7,0.7,43.61251,3.912186,24.62286,3.137119,171.3232,9,5,1393262221,0.1832886,-0.4588623,-0.9739075,-69.53427,-125.4685,13.05764,141.2917,140.5835,25,-0.05976347,0.09410866,-0.08009084,0.0470745,0.1954387,0.4902953,-0.07466216,0.08432294,-0.0819058,0.009268428,0.03718589,-0.08725286,1
2014-02-24 18:17:02.725,8,0.8,43.61251,3.912186,24.62286,3.137119,171.3232,9,5,1393262221,0.1854706,-0.4698181,-0.9620819,-42.08941,-119.4024,27.37775,155.9849,155.2767,25,-0.04095968,0.1142901,-0.1258589,0.04514582,0.1979108,0.4869081,-0.05590925,0.1044954,-0.1276799,0.009517821,0.009033277,-0.1073756,1
2014-02-24 18:17:02.820,9,0.9,43.61248,3.912195,22.26219,3.016407,170.9329,9,5,1393262222,0.2136536,-0.4646606,-0.9881134,-46.9197,-122.5438,24.44608,153.8904,153.1821,25,-0.03232199,0.1505584,-0.134341,0.0426461,0.2014535,0.4855797,-0.04727152,0.1407637,-0.136162,0.007454027,0.001877371,-0.1014833,1
2014-02-24 18:17:02.904,10,1,43.61248,3.912195,22.26219,3.016407,170.9329,9,5,1393262222,0.2181702,-0.445694,-0.9774933,-51.75,-127.635,20.38684,152.3153,151.6071,25,-0.04827512,0.1549209,-0.1404029,0.03985547,0.2055417,0.4840089,-0.06322458,0.1451263,-0.1422239,0.02591935,0.0008842783,-0.1139027,1
2014-02-24 18:17:03.005,11,1.1,43.61248,3.912195,22.26219,3.016407,170.9329,9,5,1393262222,0.2181702,-0.445694,-0.9774933,-41.86986,-136.4093,25.23538,157.7704,157.0622,25,0.03149188,0.08216385,-0.1025602,0.03739125,0.2089928,0.4826548,-0.03769951,0.116031,-0.119667,0.0358305,0.002340379,-0.121591,1
2014-02-24 18:17:03.104,12,1.2,43.61248,3.912195,22.26219,3.016407,170.9329,9,5,1393262222,0.212265,-0.4154358,-0.9485168,-17.1695,-123.8437,38.08965,165.8752,165.167,25,0.03895832,0.01761228,-0.1030316,0.03515017,0.2118524,0.4802412,0.01633338,0.07236923,-0.1046552,0.03168407,0.01629918,-0.1104378,1
2014-02-24 18:17:03.203,13,1.3,43.61248,3.912195,22.26219,3.016407,170.9329,9,5,1393262222,0.2167358,-0.4051971,-0.8997803,16.69745,-83.05965,38.59705,180.6949,179.9866,25,0.03295928,0.03326368,-0.1243579,0.03287496,0.213556,0.4802874,0.02379989,0.007817714,-0.1051266,0.02430661,0.0465983,-0.08180112,1
2014-02-24 18:17:03.399,14,1.4,43.61248,3.912195,22.26219,3.016407,170.9329,9,5,1393262222,0.2226105,-0.4051819,-0.8792267,20.81418,-56.68273,0.09059906,199.0259,198.3176,25,0.08095264,0.1015533,-0.1351213,0.03003078,0.2155973,0.478011,0.01775589,0.02348246,-0.1264678,0.02678405,0.05481691,-0.03242487,1
2014-02-24 18:17:03.525,15,1.5,43.61248,3.912195,22.26219,3.016407,170.9329,9,5,1393262222,0.2274323,-0.3973083,-0.876297,16.20345,-57.00771,-7.915131,200.632,199.9238,25,0.01709243,0.11905,-0.1535019,0.02715714,0.218233,0.4785084,0.06574927,0.09177205,-0.1372312,0.02950726,0.05519741,-0.02431718,1
2014-02-24 18:17:03.630,16,1.6,43.61248,3.912195,22.26219,3.016407,170.9329,9,5,1393262222,0.2053986,-0.40271,-0.8667755,2.535908,-55.22036,-18.23238,195.7285,195.0202,25,-0.03416303,0.1318211,-0.2080818,0.02408418,0.221574,0.478561,0.001889144,0.1092688,-0.1556118,0.02765589,0.05130733,-0.01714471,3
2014-02-24 18:17:03.728,17,1.7,43.61248,3.912195,22.26219,3.016407,170.9329,9,5,1393262222,0.2053986,-0.40271,-0.8667755,-6.685564,-55.43701,-20.14924,189.0412,188.333,25,-0.05353007,0.2004114,-0.2582079,0.01543104,0.2315418,0.4727639,-0.06877626,0.1906502,-0.2603352,-0.00179306,0.04864099,-0.00704217,3
2014-02-24 18:17:03.826,18,1.8,43.61248,3.912195,22.26219,3.016407,170.9329,9,5,1393262222,0.2118988,-0.4189453,-0.8841248,-15.96193,-55.59949,-19.41631,179.3787,178.6704,25,0.01793719,0.2846373,-0.2829784,0.009901762,0.238629,0.4698143,0.002658857,0.2748756,-0.2851123,-0.005361915,0.05001077,-0.000389938,3
2014-02-24 18:17:03.919,19,1.9,43.61243,3.912203,19.34371,3.03433,170.8,9,5,1393262223,0.2236328,-0.4062042,-0.8791962,-21.61556,-29.00593,-16.65376,127.1325,126.4243,25,-0.1250852,0.2668343,-0.2454665,0.004502679,0.246055,0.4681359,-0.0577256,0.2654425,-0.2726963,-0.00547437,0.03227825,-0.01859243,3
2014-02-24 18:17:04.014,20,2,43.61243,3.912203,19.34371,3.03433,170.8,9,5,1393262223,0.2216187,-0.3680878,-0.8560944,-17.99284,-27.0561,-19.13442,118.7136,118.0054,25,-0.1369792,0.330865,-0.306034,-0.004849761,0.2603489,0.45924,-0.152289,0.3211031,-0.3081744,-0.0155671,0.05229101,-0.002501338,3
2014-02-24 18:17:04.118,21,2.1,43.61243,3.912203,19.34371,3.03433,170.8,9,5,1393262223,0.2737885,-0.3945923,-0.9138336,-20.02376,-29.92668,-18.73978,127.4403,126.7321,25,-0.09132086,0.4137293,-0.3345585,-0.01091061,0.2700705,0.4553618,-0.1066307,0.4039674,-0.3366989,0.004207149,0.06915133,0.0009388664,3
2014-02-24 18:17:04.222,22,2.2,43.61243,3.912203,19.34371,3.03433,170.8,9,5,1393262223,0.2831116,-0.4048309,-0.9185333,-18.48685,-28.51847,-23.25003,111.187,110.4788,25,-0.1773817,0.2714864,-0.3222657,-0.01722118,0.2801977,0.4495398,-0.1324366,0.3561541,-0.3388374,0.02450475,0.04798498,-0.04057479,3
2014-02-24 18:17:04.327,23,2.3,43.61243,3.912203,19.34371,3.03433,170.8,9,5,1393262223,0.2986908,-0.4213104,-0.9425964,-20.51777,-29.33089,-23.30642,118.2601,117.5519,25,-0.1791258,0.2142433,-0.2501646,-0.02731871,0.2944574,0.4384048,-0.1945025,0.2044931,-0.2523242,0.02033706,0.01966474,-0.0520733,3
2014-02-24 18:17:04.504,24,2.4,43.61243,3.912203,19.34371,3.03433,170.8,9,5,1393262223,0.2942505,-0.3954315,-0.9642944,-20.68244,-30.68495,-23.5883,125.6985,124.9902,25,-0.1517333,0.1281809,-0.1247118,-0.03033265,0.2988542,0.4337945,-0.1974537,0.143822,-0.182547,0.03153588,-0.0009935682,-0.07543901,3
2014-02-24 18:17:04.629,25,2.5,43.61243,3.912203,19.34371,3.03433,170.8,9,5,1393262223,0.2702637,-0.3549805,-0.9619446,-22.76825,-32.52646,-22.57349,133.0679,132.3597,25,-0.08335135,0.1111124,-0.05702148,-0.03206818,0.3016411,0.4278014,-0.1671506,0.1184298,-0.1268802,0.02393638,0.01943983,-0.09549523,3
2014-02-24 18:17:04.698,26,2.6,43.61243,3.912203,19.34371,3.03433,170.8,9,5,1393262223,0.2702637,-0.3549805,-0.9619446,-23.64649,-32.52646,-23.5883,137.3773,136.6691,25,-0.01183535,0.07076498,-0.06884485,-0.03334288,0.3056816,0.4234408,-0.06803904,0.07106557,-0.05038704,0.006992669,0.05465281,-0.0943435,3
2014-02-24 18:17:04.808,27,2.7,43.61239,3.912215,19.93888,3.297239,169.8023,9,5,1393262224,0.2712097,-0.363739,-0.9287109,-26.11652,-32.68895,-24.99776,149.4621,148.7538,25,0.04266011,0.0991383,-0.1166957,-0.03385572,0.3060104,0.4193176,-0.02731632,0.06099561,-0.07102034,-0.007183172,0.06126634,-0.08037449,3
2014-02-24 18:17:04.903,28,2.8,43.61239,3.912215,19.93888,3.297239,169.8023,9,5,1393262224,0.2672119,-0.3685303,-0.914093,-27.76321,-34.42213,-25.33602,153.1607,152.4525,25,0.07944769,0.1006797,-0.1011069,-0.03778466,0.3099038,0.4172181,0.06391978,0.09089576,-0.1032873,-0.007597128,0.04147978,-0.05804196,3
2014-02-24 18:17:04.985,29,2.9,43.61239,3.912215,19.93888,3.297239,169.8023,9,5,1393262224,0.2783813,-0.3776855,-0.9031677,-27.76321,-34.7471,-25.67429,156.1485,155.4403,25,0.08458679,0.1265428,-0.1318105,-0.04019738,0.3127555,0.417879,0.07004806,0.1034193,-0.1021773,-0.01399426,0.03729256,-0.04447763,3
2014-02-24 18:17:05.100,30,3,43.61239,3.912215,19.93888,3.297239,169.8023,9,5,1393262224,0.2997894,-0.3891907,-0.9126129,-27.92789,-35.55953,-26.51997,158.988,158.2797,25,0.06979852,0.1298464,-0.129639,-0.04568595,0.3187091,0.4174075,0.05424007,0.1200528,-0.1318226,-0.001739904,0.0155756,-0.03879872,3
2014-02-24 18:17:05.179,31,3.1,43.61239,3.912215,19.93888,3.297239,169.8023,9,5,1393262224,0.3149567,-0.3906403,-0.9260559,-27.98277,-35.72202,-27.36563,166.4165,165.7083,25,0.03630821,0.09928557,-0.092123,-0.04791166,0.3215279,0.4175152,0.02074983,0.08949197,-0.09430664,0.01502355,0.01416342,-0.05112562,3
2014-02-24 18:17:05.293,32,3.2,43.61239,3.912215,19.93888,3.297239,169.8023,9,5,1393262224,0.3219452,-0.3878174,-0.9279633,-27.70832,-33.71803,-25.73067,168.2975,167.5892,25,-0.02282489,0.06380481,-0.07826737,-0.0498818,0.3239568,0.4159135,0.002227488,0.07580645,-0.08731858,0.01466472,0.01367539,-0.04729374,3
2014-02-24 18:17:05.481,33,3.3,43.61239,3.912215,19.93888,3.297239,169.8023,9,5,1393262224,0.3321228,-0.3930359,-0.928772,-23.48182,-32.25565,-22.85537,46.8702,46.16196,26,0.004254666,0.03796709,-0.07540873,-0.05302734,0.3272493,0.412867,-0.01135703,0.02818261,-0.07760816,0.02751486,0.01341973,-0.06059969,3
2014-02-24 18:17:05.572,34,3.4,43.61239,3.912215,19.93888,3.297239,169.8023,9,5,1393262224,0.3378448,-0.38797,-0.9014282,-24.57961,-32.25565,-23.41915,46.53555,45.8273,26,0.03325063,-0.0009033442,-0.003191532,-0.05414028,0.3282253,0.4125358,0.005568217,0.01728979,-0.03862667,0.03680328,0.007897845,-0.06157043,3
2014-02-24 18:17:05.729,35,3.5,43.61235,3.912232,19.48656,3.529357,166.7428,9.017418,5,1393262225,0.3344574,-0.3709717,-0.9035492,-23.97582,-31.98483,-24.15208,46.4222,45.71395,26,-0.03067136,-0.003722833,-0.01081643,-0.05506995,0.3293114,0.4108669,-0.05611844,-0.01245607,-0.01665243,0.04193218,0.031347,-0.03699826,3
2014-02-24 18:17:05.919,36,3.6,43.61235,3.912232,19.48656,3.529357,166.7428,9.017418,5,1393262225,0.3175201,-0.3765717,-0.9037018,-24.30516,-32.85143,-22.12244,46.48851,45.78026,26,-0.05280036,-0.01183775,-0.01212324,-0.05569432,0.3305091,0.4026605,-0.06852335,-0.02154943,-0.01437774,0.03176781,0.02695354,-0.03731944,3
2014-02-24 18:17:06.010,37,3.7,43.61235,3.912232,19.48656,3.529357,166.7428,9.017418,5,1393262225,0.3143921,-0.3734741,-0.9008331,-24.03072,-32.36397,-22.06607,46.44315,45.7349,26,0.009827331,0.01367613,-3.914847e-05,-0.05586617,0.3308808,0.4004007,-0.02796993,0.01388843,-0.01669037,0.01998803,0.02815407,-0.03186494,3
2014-02-24 18:17:06.113,38,3.8,43.61235,3.912232,19.48656,3.529357,166.7428,9.017418,5,1393262225,0.3083649,-0.3723602,-0.901886,-24.52472,-31.55154,-22.57347,46.4223,45.71405,26,-0.001343032,0.006892261,0.01282339,-0.05605699,0.3313384,0.3983737,-0.005960644,0.00398071,-0.00231683,0.01464867,0.01240109,-0.03511707,3
2014-02-24 18:17:06.221,39,3.9,43.61235,3.912232,19.48656,3.529357,166.7428,9.017418,5,1393262225,0.2960815,-0.3591614,-0.9089508,-25.51273,-32.09316,-24.15205,46.52859,45.82034,26,-0.01516617,-0.03142104,0.05412342,-0.05447184,0.3302466,0.3944917,-0.03102736,-0.04110814,0.05182267,0.00899558,0.01197877,-0.02858102,3
2014-02-24 18:17:06.321,40,4,43.61235,3.912232,19.48656,3.529357,166.7428,9.017418,5,1393262225,0.2960815,-0.3591614,-0.9089508,-25.29317,-31.87651,-23.81379,46.52482,45.81657,26,-0.009211608,-0.0741986,0.08509891,-0.05319031,0.3282694,0.3929784,-0.01872845,-0.08066589,0.0546659,0.003501391,0.01366349,-0.03534528,3
2014-02-24 18:17:06.503,41,4.1,43.61235,3.912232,19.48656,3.529357,166.7428,9.017418,5,1393262225,0.2871552,-0.3629761,-0.9129486,-25.23829,-33.23057,-23.87018,46.50365,45.7954,26,-0.001688444,-0.1139005,0.07382736,-0.04965829,0.3223082,0.3906663,-0.0176371,-0.1236117,0.07150966,-0.002683923,0.01773699,-0.04071305,3
2014-02-24 18:17:06.630,42,4.2,43.6123,3.912251,18.07211,4.064232,165.2781,9.5,5,1393262226,0.2835541,-0.3838196,-0.9069672,-24.08561,-32.52646,-23.47553,46.37418,45.66593,26,0.03258351,-0.1225137,0.09770286,-0.04771789,0.3183783,0.389725,0.01660144,-0.1322412,0.09538087,-0.0002931531,0.01387573,-0.03921351,3
2014-02-24 18:17:06.710,43,4.3,43.6123,3.912251,18.07211,4.064232,165.2781,9.5,5,1393262226,0.2775421,-0.3826904,-0.9080353,-25.1834,-32.30981,-23.81379,45.58856,44.88031,26,0.04707963,-0.09496699,0.1269012,-0.04556535,0.3142968,0.3898963,0.02267997,-0.1264993,0.1012492,-0.005412958,0.0002554852,-0.03909274,3
2014-02-24 18:17:06.813,44,4.4,43.6123,3.912251,18.07211,4.064232,165.2781,9.5,5,1393262226,0.2695465,-0.3874512,-0.9031982,-25.7323,-32.63478,-23.81379,45.46394,44.7557,26,0.04462979,-0.0882047,0.1244652,-0.04104768,0.307984,0.3917794,0.0286157,-0.09796861,0.1221453,-0.002627561,-0.000856824,-0.02729238,3
2014-02-24 18:17:06.920,45,4.5,43.6123,3.912251,18.07211,4.064232,165.2781,9.5,5,1393262226,0.2735443,-0.3806915,-0.9207764,-25.62252,-32.63478,-23.70104,45.22503,44.51678,26,-0.003295662,-0.09995723,0.1182542,-0.03868029,0.3046906,0.3927416,0.01759204,-0.08680073,0.1137219,-0.007610661,-0.004728492,-0.02188828,3
2014-02-24 18:17:07.020,46,4.6,43.6123,3.912251,18.07211,4.064232,165.2781,9.5,5,1393262226,0.2640228,-0.3556061,-0.9288635,-26.06163,-31.65987,-23.36276,44.88737,44.17912,26,-0.04742637,-0.1276315,0.1016766,-0.0361357,0.3012465,0.3927086,-0.01932748,-0.1097507,0.1159384,-0.0005796082,0.002000732,-0.03850503,3
2014-02-24 18:17:07.132,47,4.7,43.6123,3.912251,18.07211,4.064232,165.2781,9.5,5,1393262226,0.2440186,-0.3650055,-0.9114685,-24.90895,-33.66386,-24.77224,46.42842,45.72018,26,-0.07797523,-0.1631708,0.08061442,-0.03115891,0.293037,0.3893133,-0.09405357,-0.1729812,0.07829174,0.001873669,0.01984247,-0.04401765,3
2014-02-24 18:17:07.259,48,4.8,43.6123,3.912251,18.07211,4.064232,165.2781,9.5,5,1393262226,0.2568817,-0.3504791,-0.9309082,-25.67741,-32.4723,-23.19364,46.89344,46.18519,26,0.0120761,-0.01666287,0.03077895,-0.02605013,0.2801349,0.3788291,-0.02601397,-0.03242024,0.02117141,0.02087368,-0.009180196,-0.05906976,3
2014-02-24 18:17:07.412,49,4.9,43.6123,3.912251,18.07211,4.064232,165.2781,9.5,5,1393262226,0.2687378,-0.3456421,-0.9191284,-26.00674,-32.79727,-23.87018,46.64447,45.93622,26,0.0120761,-0.01666287,0.03077895,-0.02542884,0.2792375,0.3779069,-0.003946561,-0.02652701,0.02836149,0.008016097,0.008319158,-0.04416886,3
2014-02-24 18:17:07.506,50,5,43.6123,3.912251,18.07211,4.064232,165.2781,9.5,5,1393262226,0.2687378,-0.3456421,-0.9191284,-26.66542,-32.4723,-24.0957,46.1754,45.46715,26,-0.020513,-0.03791542,-0.04440528,-0.02503419,0.2784737,0.3766693,0.002394265,-0.0119729,0.0001218392,0.006147101,0.02129824,-0.02900872,3
2014-02-24 18:17:07.605,51,5.1,43.61225,3.912267,18.15092,4.596756,166.2583,9.5,5,1393262227,0.2814026,-0.372879,-0.919754,-25.89697,-32.25565,-24.32121,46.15644,45.4482,26,-0.02545636,-0.002839462,-0.04714115,-0.02543388,0.278055,0.3753614,-0.03656858,-0.04778066,-0.04683019,0.01336291,0.0209667,-0.0244879,3
2014-02-24 18:17:07.728,52,5.2,43.61225,3.912267,18.15092,4.596756,166.2583,9.5,5,1393262227,0.3058624,-0.3893738,-0.9193573,-25.12851,-32.039,-24.88499,46.29922,45.59098,26,-0.0122833,0.0474293,-0.009966081,-0.02654423,0.2783879,0.3737317,-0.04152008,-0.01269535,-0.04957043,0.02556605,-0.007786934,-0.02462531,3
2014-02-24 18:17:07.827,53,5.3,43.61225,3.912267,18.15092,4.596756,166.2583,9.5,5,1393262227,0.2898407,-0.3851776,-0.9380951,-24.85406,-31.87651,-24.94137,46.42321,45.71497,26,0.003413107,0.05124135,0.02651363,-0.02718326,0.2798001,0.3733206,-0.02834223,0.03758764,-0.01239793,0.0487206,-0.02466444,-0.02444659,3
2014-02-24 18:17:07.922,54,5.4,43.61225,3.912267,18.15092,4.596756,166.2583,9.5,5,1393262227,0.2802887,-0.3629913,-0.9354401,-26.06164,-31.98484,-24.26482,46.58834,45.88009,26,0.02423264,0.05376363,0.03842009,-0.02679165,0.2804635,0.3730983,-0.0126458,0.04139971,0.02408179,0.04226049,-0.02883871,-0.03921843,3
2014-02-24 18:17:08.021,55,5.5,43.61225,3.912267,18.15092,4.596756,166.2583,9.5,5,1393262227,0.27005,-0.3576965,-0.9229126,-25.12851,-32.79727,-23.30638,46.6317,45.92345,26,0.02187893,-0.0142828,0.03554228,-0.02621474,0.2812555,0.3731367,0.008169782,0.04392597,0.03598616,0.02300109,-0.005487577,-0.04271692,3
2014-02-24 18:17:08.126,56,5.6,43.61225,3.912267,18.15092,4.596756,166.2583,9.5,5,1393262227,0.2726593,-0.3514862,-0.8868408,-26.06163,-33.39305,-23.13725,46.64379,45.93554,26,-0.008728244,-0.04863331,0.02150609,-0.02574101,0.2810706,0.3733833,0.005816156,-0.02412042,0.03310835,0.01591302,0.003927873,-0.03608746,3
2014-02-24 18:17:08.246,57,5.7,43.61225,3.912267,18.15092,4.596756,166.2583,9.5,5,1393262227,0.2706909,-0.3573456,-0.8751221,-25.51274,-32.20149,-23.81379,46.65465,45.9464,26,-0.05547604,-0.05579642,0.02112712,-0.02524904,0.2799849,0.3733976,-0.02479099,-0.05847091,0.01907217,0.01275064,0.007084442,-0.02807638,3
2014-02-24 18:17:08.466,58,5.8,43.61225,3.912267,18.15092,4.596756,166.2583,9.5,5,1393262227,0.2788849,-0.3586578,-0.8925781,-25.84207,-32.09317,-23.92653,46.85028,46.14203,26,-0.08616764,-0.03346208,0.008882974,-0.02470567,0.2789148,0.3722292,-0.07154484,-0.0656309,0.01869076,0.01620046,0.01220663,0.008679355,3
2014-02-24 18:17:08.650,59,5.9,43.61219,3.912283,20.16177,5.524989,166.8988,9.5,5,1393262228,0.2813416,-0.3718262,-0.9129333,-25.45785,-32.90559,-23.53188,46.82867,46.12043,26,-0.006252037,0.04533126,0.005362275,-0.02370584,0.278345,0.3678963,-0.02232194,0.03550791,0.002922465,0.01966759,-0.003017554,-0.008100547,3
2014-02-24 18:17:08.761,60,6,43.61219,3.912283,20.16177,5.524989,166.8988,9.5,5,1393262228,0.2593994,-0.3686066,-0.9453888,-25.84208,-32.30981,-22.34792,46.74824,46.03999,26,-0.02115642,0.0261075,0.02534983,-0.02370584,0.278345,0.3678963,-0.02232194,0.03550791,0.002922465,0.01966759,-0.003017554,-0.008100547,3
2014-02-24 18:17:08.865,61,6.1,43.61219,3.912283,20.16177,5.524989,166.8988,9.5,5,1393262228,0.2510681,-0.3573761,-0.9387512,-21.89001,-31.22657,-22.12241,46.52909,45.82085,26,0.08073027,0.02713362,0.05564595,-0.01961897,0.2771712,0.3676766,0.0646527,0.01730806,0.05320476,-0.01322103,0.001202434,-0.05104393,3
2014-02-24 18:17:08.968,62,6.2,43.61219,3.912283,20.16177,5.524989,166.8988,9.5,5,1393262228,0.2540894,-0.3584137,-0.9367523,-21.39601,-31.82235,-21.615,46.18033,45.47208,26,0.07608092,0.03815005,0.02030048,-0.01931474,0.2776256,0.3691784,0.06000343,0.02832454,0.0178593,-0.004538954,0.003473208,-0.04183829,3
2014-02-24 18:17:09.165,63,6.3,43.61219,3.912283,20.16177,5.524989,166.8988,9.5,5,1393262228,0.2565155,-0.3881226,-0.8994446,-19.47487,-30.68495,-20.54382,46.20915,45.5009,26,0.02343742,-0.05195135,0.0007318367,-0.01879329,0.2758667,0.3687869,0.007350947,-0.06178123,-0.001710464,-0.005822277,-0.006764363,-0.03731746,3
2014-02-24 18:17:09.397,64,6.4,43.61219,3.912283,20.16177,5.524989,166.8988,9.5,5,1393262228,0.2502289,-0.3731079,-0.9113312,-11.90009,-32.30981,-18.62694,46.23706,45.52882,26,0.05265629,0.004052266,0.0309667,-0.0189924,0.2750989,0.370436,0.0365722,-0.005777477,0.02852501,0.00822754,-0.02224021,-0.002295598,3
2014-02-24 18:17:09.505,65,6.5,43.61213,3.912304,21.5966,6.281082,166.6058,9.5,5,1393262229,0.2502289,-0.3731079,-0.9113312,-11.18652,-33.88051,-18.11955,45.39835,44.6901,26,-0.006441121,-0.01335096,0.03760703,-0.01823867,0.2746937,0.3706437,-0.01394793,-0.008362057,0.0374498,0.006444779,-0.01696541,0.001579763,3
2014-02-24 18:17:09.602,66,6.6,43.61213,3.912304,21.5966,6.281082,166.6058,9.5,5,1393262229,0.2498322,-0.3571167,-0.907547,-11.13163,-34.15132,-18.28869,45.26052,44.55228,26,0.0086606,0.01586791,-0.008283762,-0.0174232,0.273976,0.370859,-0.02251852,-0.0231819,0.03516752,-0.001938641,-0.01069171,-0.01407645,3
2014-02-24 18:17:09.730,67,6.7,43.61213,3.912304,21.5966,6.281082,166.6058,9.5,5,1393262229,0.254364,-0.3762665,-0.9190674,-11.24141,-34.36797,-17.95041,45.60992,44.90167,26,-0.003478887,0.01334803,-0.02831846,-0.0171152,0.273654,0.3708699,-0.007416723,0.006037013,-0.01072326,-0.002045365,0.005309655,-0.01021492,3
2014-02-24 18:17:09.801,68,6.8,43.61213,3.912304,21.5966,6.281082,166.6058,9.5,5,1393262229,0.2622681,-0.3694763,-0.9219513,-10.69252,-34.80126,-17.83765,45.59868,44.89043,26,-0.03054805,0.02106161,-0.02982714,-0.01734904,0.2734337,0.3703687,-0.01955779,0.003511506,-0.03075662,-0.007695046,-0.003061569,-0.0158593,3
2014-02-24 18:17:09.897,69,6.9,43.61213,3.912304,21.5966,6.281082,166.6058,9.5,5,1393262229,0.271637,-0.3749084,-0.9539795,-10.08873,-34.85543,-17.10474,45.60358,44.89534,26,-0.02810354,0.04373816,-0.03119787,-0.01769104,0.2736251,0.3700356,-0.04662107,0.01122479,-0.03226363,0.008503745,-0.01673882,-0.02136094,3
2014-02-24 18:17:10.007,70,7,43.61213,3.912304,21.5966,6.281082,166.6058,9.5,5,1393262229,0.2695923,-0.3718872,-0.9579315,-10.52785,-37.99683,-15.8644,45.80742,45.09917,26,0.02468457,0.04086994,-0.01541225,-0.01820895,0.2745461,0.3688418,-0.04417872,0.03390379,-0.03363571,0.01470147,-0.01519704,-0.04547039,3
2014-02-24 18:17:10.109,71,7.1,43.61213,3.912304,21.5966,6.281082,166.6058,9.5,5,1393262229,0.2625427,-0.373642,-0.9462891,-8.387144,-38.26764,-16.48456,48.19242,47.48417,26,0.02726651,0.01812974,-0.02689686,-0.01863107,0.2753749,0.3680649,0.008602696,0.03103689,-0.01785232,0.01801643,-0.01613547,-0.0629281,3
2014-02-24 18:17:10.207,72,7.2,43.61213,3.912304,21.5966,6.281082,166.6058,9.5,5,1393262229,0.2552795,-0.3635254,-0.9483948,-8.002918,-38.7551,-17.10472,48.6777,47.96946,26,-0.01217943,0.006573747,-0.01660508,-0.01915794,0.2756664,0.3680021,0.01118,0.008296248,-0.02933805,0.01562756,-0.01213519,-0.06011171,3
2014-02-24 18:17:10.282,73,7.3,43.61213,3.912304,21.5966,6.281082,166.6058,9.5,5,1393262229,0.2621765,-0.3576965,-0.947403,-8.222477,-40.05499,-15.75163,49.07668,48.36843,26,0.00751624,0.02369894,-0.02010207,-0.01930667,0.2754421,0.3673553,-0.02826872,-0.003263734,-0.01904573,0.008716207,-0.01449348,-0.04818859,3
2014-02-24 18:17:10.523,74,7.4,43.61206,3.912296,22.45556,7.664751,183.9412,9.385174,5,1393262230,0.2704163,-0.3687897,-0.938446,-9.869169,-40.05498,-16.42818,50.28241,49.57417,26,0.03093874,0.01817661,-0.02451573,-0.019577,0.2756439,0.3669867,-0.00857297,0.0138615,-0.02254272,0.001235789,-0.004721009,-0.05021818,3
2014-02-24 18:17:10.618,75,7.5,43.61206,3.912296,22.45556,7.664751,183.9412,9.385174,5,1393262230,0.2704163,-0.3687897,-0.938446,-8.826267,-41.62568,-16.82282,51.98011,51.27187,26,0.04352884,0.001012534,-0.0570742,-0.02104226,0.2762915,0.366147,0.0274231,-0.008826596,-0.05951874,0.01337414,0.004260731,-0.04221984,3
2014-02-24 18:17:10.720,76,7.6,43.61206,3.912296,22.45556,7.664751,183.9412,9.385174,5,1393262230,0.2756348,-0.3847046,-0.9177704,-8.771374,-42.54644,-16.65369,52.6334,51.92516,26,0.06567915,0.00684246,-0.05809153,-0.02261849,0.2770683,0.3665341,0.04957309,-0.002988968,-0.06053858,0.02099996,-0.01339848,-0.0228217,3
2014-02-24 18:17:10.821,77,7.7,43.61206,3.912296,22.45556,7.664751,183.9412,9.385174,5,1393262230,0.2714386,-0.3785858,-0.9120178,-9.045824,-43.90049,-16.48455,53.69905,52.9908,26,0.06797479,0.01834305,-0.03941212,-0.02406346,0.2779842,0.3675783,0.05187564,0.008517261,-0.04185907,0.01954795,-0.02534807,-0.02039508,3
2014-02-24 18:17:10.919,78,7.8,43.61206,3.912296,22.45556,7.664751,183.9412,9.385174,5,1393262230,0.2631989,-0.3723602,-0.9033813,-9.320269,-43.41303,-15.97714,54.72358,54.01534,26,0.06060369,0.02506727,-0.04189445,-0.02540293,0.2793014,0.3686694,0.04451535,0.01525193,-0.04434178,0.01427823,-0.0182113,-0.01535805,3
2014-02-24 18:17:11.037,79,7.9,43.61206,3.912296,22.45556,7.664751,183.9412,9.385174,5,1393262230,0.2549896,-0.3661194,-0.8957214,-10.03384,-43.35887,-18.06314,60.20998,59.50173,26,0.1112469,0.04451234,-0.06857933,-0.02652268,0.2803206,0.3699401,0.0641897,0.02561729,-0.04307955,0.0052517,-0.01080067,-0.007424904,3
2014-02-24 18:17:11.121,80,8,43.61206,3.912296,22.45556,7.664751,183.9412,9.385174,5,1393262230,0.2650604,-0.3693237,-0.8916779,-9.320274,-43.41303,-17.66849,60.42469,59.71644,26,0.09907598,0.07711609,-0.09013043,-0.02816889,0.2814355,0.3712238,0.09516757,0.03469941,-0.07102488,-0.001858756,-0.0004487926,-0.004390751,3
2014-02-24 18:17:11.204,81,8.1,43.61206,3.912296,22.45556,7.664751,183.9412,9.385174,5,1393262230,0.261795,-0.3543549,-0.9035187,-9.539831,-44.1713,-17.894,63.1022,62.39395,26,0.04878006,0.110538,-0.1144017,-0.03021325,0.2831321,0.3724761,0.08299792,0.06730169,-0.09257512,-0.002059981,-0.01119919,0.005565679,3
2014-02-24 18:17:11.321,82,8.2,43.61206,3.912296,22.45556,7.664751,183.9412,9.385174,5,1393262230,0.2751617,-0.363739,-0.9169617,-9.320269,-44.1713,-17.78125,63.69881,62.99056,26,0.01485778,0.1040934,-0.1791857,-0.03257465,0.2855617,0.3729323,0.03270207,0.1007236,-0.1168464,-0.00151498,0.005079526,0.001750239,3
2014-02-24 18:17:11.530,83,8.3,43.61206,3.912296,22.45556,7.664751,183.9412,9.385174,5,1393262230,0.2733307,-0.3638916,-0.9443054,-10.69251,-43.90049,-18.62692,68.25089,67.54265,26,-0.02687369,0.1138568,-0.1937594,-0.035707,0.2885055,0.3719341,-0.001225554,0.09427749,-0.1816314,-6.673606e-05,0.003905663,-0.02301547,3
2014-02-24 18:17:11.616,84,8.400001,43.61199,3.912267,25.12924,7.857859,198.6243,9,5,1393262231,0.263443,-0.3267212,-0.9388275,-9.43005,-43.73801,-19.24709,69.06583,68.35758,26,-0.1016273,0.09033735,-0.2282678,-0.03921462,0.2916977,0.3702379,-0.04296032,0.1040416,-0.1962062,0.007069043,-0.001901744,-0.02410104,3
2014-02-24 18:17:11.715,85,8.5,43.61199,3.912267,25.12924,7.857859,198.6243,9,5,1393262231,0.2693939,-0.3716888,-0.9306183,-11.46097,-44.44211,-20.31828,71.56067,70.85242,26,-0.05455299,0.1028425,-0.2689963,-0.04271817,0.2941425,0.3670495,-0.1177227,0.08051652,-0.2307152,0.002722834,-0.005028535,-0.05100329,3
2014-02-24 18:17:11.811,86,8.6,43.61199,3.912267,25.12924,7.857859,198.6243,9,5,1393262231,0.2945557,-0.3693695,-0.9440155,-12.06476,-44.38795,-20.82568,75.94086,75.23261,26,0.1005943,0.2103484,-0.2978831,-0.05216537,0.3007312,0.3609907,0.08446758,0.2005028,-0.3003309,-0.01409559,0.001516676,-0.04899052,3
2014-02-24 18:17:11.905,87,8.7,43.61199,3.912267,25.12924,7.857859,198.6243,9,5,1393262231,0.2939606,-0.3922272,-0.9321442,-13.87612,-43.90049,-22.00962,76.51427,75.80602,26,0.1374271,0.2718446,-0.2969563,-0.05835812,0.3070663,0.3616264,0.1213016,0.2619894,-0.2994007,0.002869612,-0.01935775,-0.0515276,3
2014-02-24 18:17:12.006,88,8.8,43.61199,3.912267,25.12924,7.857859,198.6243,9,5,1393262231,0.2939606,-0.3922272,-0.9321442,-16.0717,-43.14222,-23.13719,77.10658,76.39833,26,0.2217351,0.224402,-0.2159121,-0.06480789,0.3140179,0.3625681,0.1875936,0.2445396,-0.2774778,0.0008710723,-0.02154412,-0.05279411,3
2014-02-24 18:17:12.101,89,8.900001,43.61199,3.912267,25.12924,7.857859,198.6243,9,5,1393262231,0.2802887,-0.3727722,-0.9070892,-17.38906,-42.81725,-23.70098,76.88754,76.17929,26,0.2217351,0.224402,-0.2159121,-0.07046007,0.3202526,0.365131,0.2056097,0.2145468,-0.2183564,-9.280969e-05,-0.03515548,-0.04555947,3
2014-02-24 18:17:12.211,90,9,43.61199,3.912267,25.12924,7.857859,198.6243,9,5,1393262231,0.2651978,-0.3743286,-0.8955536,-18.54174,-42.87141,-24.65941,77.23788,76.52964,26,0.1502199,0.1900336,-0.1928017,-0.07512368,0.3255112,0.3674867,0.1698227,0.2099661,-0.1893805,-0.004694646,-0.02882092,-0.0303851,3
2014-02-24 18:17:12.338,91,9.1,43.61199,3.912267,25.12924,7.857859,198.6243,9,5,1393262231,0.2693329,-0.3852844,-0.87883,-23.15248,-44.1713,-25.44871,81.05768,80.34943,26,0.1541179,0.1921247,-0.2185928,-0.07967616,0.3306994,0.3690371,0.1342216,0.180176,-0.1952975,-0.02255524,-0.01205468,-0.02495069,3
2014-02-24 18:17:12.549,92,9.2,43.61199,3.912267,25.12924,7.857859,198.6243,9,5,1393262231,0.2946014,-0.3947601,-0.8716431,-23.53671,-44.22546,-26.85817,82.64717,81.93893,26,0.2414915,0.2301477,-0.2251633,-0.08410646,0.334809,0.3702697,0.1381219,0.1822551,-0.221084,-0.04112251,-0.01246171,-0.01508766,3
2014-02-24 18:17:12.701,93,9.3,43.61193,3.912214,24.79498,7.759366,213.9669,9,5,1393262232,0.3364868,-0.4256744,-0.8748322,-24.0856,-44.11714,-27.53471,83.33352,82.62527,26,0.2291818,0.2266616,-0.2240744,-0.1011377,0.352717,0.378425,0.213192,0.2167808,-0.22656,-0.0008018652,-0.04979312,0.004777146,3
2014-02-24 18:17:12.797,94,9.400001,43.61193,3.912214,24.79498,7.759366,213.9669,9,5,1393262232,0.3514252,-0.417099,-0.885437,-24.74428,-45.41703,-28.32401,85.41648,84.70824,26,0.1464664,0.1617644,-0.1808305,-0.1061493,0.3578561,0.3799219,0.1304767,0.1518836,-0.1833162,0.01119615,-0.05482653,-0.004971355,3
2014-02-24 18:17:12.933,95,9.5,43.61193,3.912214,24.79498,7.759366,213.9669,9,5,1393262232,0.3543396,-0.4121857,-0.8874054,-25.29318,-45.742,-28.21125,86.80499,86.09675,26,0.1054593,0.1075038,-0.1232127,-0.1098295,0.3618995,0.3816951,0.0894844,0.09762835,-0.1256964,0.02285331,-0.04460489,-0.01751497,3
2014-02-24 18:17:13.012,96,9.6,43.61193,3.912214,24.79498,7.759366,213.9669,9,5,1393262232,0.3540802,-0.404129,-0.8777161,-25.84207,-45.30871,-28.324,87.37881,86.67056,26,0.0793907,0.04300046,-0.08529439,-0.1123426,0.3638477,0.3822714,0.06341586,0.03312503,-0.087778,0.0241539,-0.03915679,-0.02032589,3
2014-02-24 18:17:13.119,97,9.7,43.61193,3.912214,24.79498,7.759366,213.9669,9,5,1393262232,0.3384552,-0.3856659,-0.8546143,-22.65847,-44.44211,-28.66228,88.00327,87.29502,26,0.08786941,0.05225442,-0.07005259,-0.1144476,0.3656011,0.3835941,0.07190473,0.04238473,-0.07253553,0.02578626,-0.03701437,-0.02037589,3
2014-02-24 18:17:13.688,98,9.8,43.61193,3.912214,24.79498,7.759366,213.9669,9,5,1393262232,0.374649,-0.4226227,-0.8880768,-23.75627,-45.30871,-27.76022,88.96716,88.25891,26,0.3958414,0.2375217,-0.4442968,-0.1634378,0.4015231,0.3847803,0.3798772,0.2276524,-0.4467796,-0.01037663,-0.01291959,-0.04615941,3
2014-02-24 18:17:13.903,99,9.900001,43.61193,3.912214,24.79498,7.759366,213.9669,9,5,1393262232,0.4345093,-0.4606628,-0.8568573,-23.93192,-44.56165,-27.0607,206.7455,206.0372,25,0.5492631,0.2888995,-0.4034388,-0.1634378,0.4015231,0.3847803,0.3798772,0.2276524,-0.4467796,-0.01037663,-0.01291959,-0.04615941,3
2014-02-24 18:17:14.010,100,10,43.61187,3.912156,23.39787,8.405038,214.6411,9,5,1393262233,0.4152985,-0.4483948,-0.8766785,-23.93192,-45.1054,-26.83289,207.4176,206.7093,25,0.4575849,0.2638985,-0.3231309,-0.1756759,0.4107791,0.3899302,0.533299,0.2790301,-0.4059217,0.0595606,-0.05545348,-0.006212088,3
2014-02-24 18:17:14.116,101,10.1,43.61187,3.912156,23.39787,8.405038,214.6411,9,5,1393262233,0.4453735,-0.4763031,-0.7795563,-23.54801,-44.18102,-27.23157,208.2892,207.581,25,0.2701836,0.1371563,-0.2591735,-0.1862311,0.4199817,0.396031,0.4416208,0.2540292,-0.3256138,0.05832514,-0.07490324,-0.01443518,3
2014-02-24 18:17:14.205,102,10.2,43.61187,3.912156,23.39787,8.405038,214.6411,9,5,1393262233,0.4915924,-0.5164185,-0.8031311,-22.7802,-43.85477,-27.23157,208.3029,207.5946,25,0.2579796,0.2558281,-0.2897764,-0.1949053,0.4266234,0.3993124,0.2542196,0.127287,-0.2616563,0.03405341,-0.05960986,-0.03793029,3
2014-02-24 18:17:14.302,103,10.3,43.61187,3.912156,23.39787,8.405038,214.6411,9,5,1393262233,0.4788208,-0.4822388,-0.8074341,-22.72536,-44.34415,-27.28852,208.2317,207.5234,25,0.3357037,0.196308,-0.1535414,-0.2016418,0.4328985,0.4008448,0.2420157,0.2459588,-0.2922592,0.05912318,-0.08610675,0.05624124,3
2014-02-24 18:17:14.537,104,10.4,43.61187,3.912156,23.39787,8.405038,214.6411,9,5,1393262233,0.4788208,-0.4822388,-0.8074341,-26.67411,-45.64915,-26.37727,207.4508,206.7425,25,0.2298231,0.1571377,0.01123135,-0.2113762,0.4437608,0.4082896,0.2138593,0.1472685,0.008748537,0.104945,-0.09450651,0.03837879,3
2014-02-24 18:17:14.718,105,10.5,43.61187,3.912156,23.39787,8.405038,214.6411,9,5,1393262233,0.3984375,-0.4403992,-0.7872162,-27.22255,-45.1054,-28.31367,207.6952,206.987,25,-0.04458877,-0.1166598,0.05349945,-0.2104631,0.4417352,0.4099391,-0.06055249,-0.1265289,0.05101665,0.03189319,-0.05455623,0.01790644,3
2014-02-24 18:17:14.819,106,10.6,43.61187,3.912156,23.39787,8.405038,214.6411,9,5,1393262233,0.3773041,-0.4242706,-0.8314667,-27.27739,-45.48602,-28.37062,207.8266,207.1183,25,-0.08662091,-0.05226427,0.06771753,-0.2084056,0.4393809,0.4089383,-0.1025845,-0.06213333,0.06523474,0.00813348,-0.04276381,0.04317462,3
2014-02-24 18:17:14.918,107,10.7,43.61181,3.912094,22.17416,8.155433,215.3294,9,5,1393262234,0.3743744,-0.4311066,-0.8216705,-27.1677,-45.92102,-27.45937,207.9354,207.2272,25,-0.07658798,-0.06029769,0.04560344,-0.2065073,0.4374829,0.4074892,-0.09255154,-0.07016671,0.04312067,-0.01166685,-0.02796529,0.0001845085,3
2014-02-24 18:17:15.037,108,10.8,43.61181,3.912094,22.17416,8.155433,215.3294,9,5,1393262234,0.3725739,-0.4361572,-0.8343506,-26.01598,-47.2804,-26.60507,209.3038,208.5956,25,0.02197774,0.007129549,0.0200837,-0.2054814,0.4358774,0.4071716,-0.001488159,-0.03890542,0.03782498,-0.01331391,-0.03509282,0.01071813,3
2014-02-24 18:17:15.133,109,10.9,43.61181,3.912094,22.17416,8.155433,215.3294,9,5,1393262234,0.3787689,-0.437439,-0.8567047,-27.1677,-46.68227,-27.00375,210.4545,209.7462,25,0.0259019,-0.005521798,-0.006736466,-0.2050523,0.4356311,0.4074646,0.006014278,-0.002739397,0.01760094,-0.01605065,-0.03674638,0.01263095,3
2014-02-24 18:17:15.269,110,11,43.61181,3.912094,22.17416,8.155433,215.3294,9,5,1393262234,0.3826294,-0.4725189,-0.864212,-27.00317,-46.51915,-28.54149,211.17,210.4617,25,0.03333745,0.02278521,-0.0174991,-0.2121454,0.4419168,0.4110087,0.01737436,0.01291649,-0.0199818,0.003498009,-0.1033955,0.07700446,3
2014-02-24 18:17:15.477,111,11.1,43.61181,3.912094,22.17416,8.155433,215.3294,9,5,1393262234,0.3815918,-0.4197845,-0.8841095,-26.89348,-46.73665,-27.85805,211.2039,210.4956,25,-0.1835933,-0.03060398,0.03490099,-0.2121454,0.4419168,0.4110087,0.01737436,0.01291649,-0.0199818,0.003498009,-0.1033955,0.07700446,3
2014-02-24 18:17:15.596,112,11.2,43.61181,3.912094,22.17416,8.155433,215.3294,9,5,1393262234,0.3815918,-0.4197845,-0.8841095,-26.72895,-46.35603,-26.66204,211.3003,210.5921,25,-0.160219,-0.05192764,0.03885312,-0.2077055,0.4372267,0.4074598,-0.1761533,-0.06181213,0.03638674,-0.02073605,-0.05098728,-0.03473949,3
2014-02-24 18:17:15.695,113,11.3,43.61181,3.912094,22.17416,8.155433,215.3294,9,5,1393262234,0.3868103,-0.4513092,-0.9550171,-25.63208,-45.37727,-25.52299,210.6722,209.9639,25,-0.02253727,-0.01677312,0.0503902,-0.2061417,0.4358107,0.40602,-0.03847156,-0.02665756,0.04792383,-0.01087196,-0.03485355,-0.07563514,3
2014-02-24 18:17:15.798,114,11.4,43.61181,3.912094,22.17416,8.155433,215.3294,9,5,1393262234,0.3743439,-0.4525909,-0.8937073,-25.13848,-45.21415,-26.14948,210.5421,209.8338,25,0.1359312,-0.07415678,0.09235816,-0.2053492,0.4345151,0.4079143,0.1199969,-0.0840412,0.08989179,0.0003802304,-0.05461361,-0.1223681,3
2014-02-24 18:17:15.896,115,11.5,43.61175,3.912029,22.19576,8.125323,214.6838,9,5,1393262235,0.3865662,-0.4695892,-0.8622284,-24.31582,-45.26852,-27.00377,210.5827,209.8744,25,0.05349039,-0.04762558,0.08778791,-0.2038686,0.4313466,0.411128,0.03756766,-0.05753092,0.08533446,-0.008910992,-0.05294736,-0.06100041,3
2014-02-24 18:17:15.971,116,11.6,43.61175,3.912029,22.19576,8.125323,214.6838,9,5,1393262235,0.3925018,-0.4794006,-0.8201447,-24.15129,-46.08415,-25.80775,209.3961,208.6879,25,0.001747833,-0.1068306,0.1042926,-0.2021236,0.4289977,0.4118431,-0.01417482,-0.1167359,0.1018391,0.005387295,-0.06929022,-0.0288837,3
2014-02-24 18:17:16.076,117,11.7,43.61175,3.912029,22.19576,8.125323,214.6838,9,5,1393262235,0.4006195,-0.4942932,-0.7858124,-24.59005,-45.7579,-25.80774,210.6122,209.9039,25,-0.01324736,-0.1463426,0.1385539,-0.2001127,0.426243,0.415616,-0.02912572,-0.156242,0.1361127,0.01424714,-0.07564705,0.01286581,3
2014-02-24 18:17:16.230,118,11.8,43.61175,3.912029,22.19576,8.125323,214.6838,9,5,1393262235,0.4023285,-0.4647827,-0.836731,-24.75458,-45.26852,-27.45938,212.022,211.3137,25,-0.1655381,-0.1148946,0.2494026,-0.1904683,0.4166391,0.4151209,-0.1814163,-0.124794,0.2469615,0.03001144,-0.07703087,0.04989164,3
2014-02-24 18:17:16.410,119,11.9,43.61175,3.912029,22.19576,8.125323,214.6838,9,5,1393262235,0.4023285,-0.4647827,-0.836731,-24.26098,-45.43165,-26.37727,210.2893,209.5811,25,-0.1942504,-0.06150411,0.2920108,-0.1846226,0.413974,0.4164411,-0.2553335,-0.08445586,0.2575969,0.01524547,-0.06555394,0.03743268,3
2014-02-24 18:17:16.647,120,12,43.61175,3.912029,22.19576,8.125323,214.6838,9,5,1393262235,0.3787537,-0.4384155,-0.8518219,-23.49317,-44.34415,-26.03556,208.7287,208.0205,25,-0.09093364,-0.06398058,0.4502236,-0.1695599,0.4055564,0.4166812,-0.142375,-0.1228437,0.4502797,0.03929726,-0.08512501,-0.02067059,3
2014-02-24 18:17:16.843,121,12.1,43.61168,3.911956,22.0253,9.657947,214.0355,9,5,1393262236,0.3723297,-0.4574127,-0.8761444,-24.04161,-44.12665,-27.06072,208.7419,208.0337,25,-0.002842392,-0.01420557,0.3532161,-0.1513499,0.395313,0.4189931,-0.1137387,-0.04370806,0.3969926,0.02475536,-0.01765862,-0.02353074,3
2014-02-24 18:17:16.917,122,12.2,43.61168,3.911956,22.0253,9.657947,214.0355,9,5,1393262236,0.3465729,-0.474762,-0.8704529,-24.75458,-43.41977,-26.88986,208.7515,208.0432,25,0.05306881,0.06388524,0.426897,-0.1443703,0.3919962,0.4213984,-0.01863366,-0.02407214,0.3507898,0.01659105,-0.0412805,-0.03980061,3
2014-02-24 18:17:17.021,123,12.3,43.61168,3.911956,22.0253,9.657947,214.0355,9,5,1393262236,0.3249969,-0.4571991,-0.8552399,-24.04161,-44.2354,-27.17463,208.7809,208.0727,25,0.1892714,0.1502153,0.4613825,-0.1291454,0.3878684,0.4308907,0.1734996,0.1403445,0.4589655,-0.008332921,-0.04781965,-0.02759678,3
2014-02-24 18:17:17.105,124,12.4,43.61168,3.911956,22.0253,9.657947,214.0355,9,5,1393262236,0.3195801,-0.4381409,-0.8593292,-23.05442,-43.8004,-27.51634,208.7912,208.083,25,0.2739834,0.2144534,0.4756467,-0.1220315,0.3882268,0.4382842,0.2582116,0.2045826,0.4732297,-0.01777092,-0.0328126,-0.01714304,3
2014-02-24 18:17:17.187,125,12.5,43.61168,3.911956,22.0253,9.657947,214.0355,9,5,1393262236,0.3329163,-0.4494324,-0.8630066,-22.67051,-43.96352,-27.00377,208.9454,208.2371,25,0.284812,0.2248882,0.3524731,-0.1162565,0.3888625,0.4462179,0.2690389,0.2150051,0.350062,-0.02243321,-0.006584026,-0.02459238,3
2014-02-24 18:17:17.309,126,12.6,43.61168,3.911956,22.0253,9.657947,214.0355,9,5,1393262236,0.316452,-0.4438019,-0.8242188,-22.94473,-44.77914,-26.4912,208.1248,207.4165,25,0.3394862,0.2134651,0.2885886,-0.1124205,0.3909979,0.4534685,0.3237132,0.2035821,0.2861775,-0.009677219,-0.01134629,-0.03191677,3
2014-02-24 18:17:17.539,127,12.7,43.61168,3.911956,22.0253,9.657947,214.0355,9,5,1393262236,0.3143463,-0.4456024,-0.8027802,-23.32864,-43.85477,-27.45939,209.3205,208.6122,25,0.3292202,0.1797607,0.1937974,-0.1106809,0.3936392,0.460687,0.313495,0.1698837,0.1913315,-0.018065,0.00639218,-0.01739503,3
2014-02-24 18:17:17.622,128,12.8,43.61159,3.911873,22.76795,11.30462,213.8951,9,10,1393262237,0.3167114,-0.4645691,-0.7977295,-23.16411,-44.4529,-26.14948,209.2203,208.512,25,0.3136376,0.2007424,0.1394799,-0.1095286,0.3956036,0.4672649,0.2979131,0.1908548,0.1370196,-0.02955657,-0.0001917499,0.01427686,3
2014-02-24 18:17:17.721,129,12.9,43.61159,3.911873,22.76795,11.30462,213.8951,9,10,1393262237,0.3167114,-0.4645691,-0.7977295,-23.27379,-44.2354,-27.06073,209.1951,208.4868,25,0.3133457,0.2598156,0.01455098,-0.1103497,0.3997632,0.4727665,0.2629815,0.2068255,0.04150642,-0.03216334,0.008772089,0.01832536,3
2014-02-24 18:17:17.815,130,13,43.61159,3.911873,22.76795,11.30462,213.8951,9,10,1393262237,0.3580017,-0.5163574,-0.7949066,-24.15129,-44.56165,-26.83292,208.4759,207.7676,25,0.3133457,0.2598156,0.01455098,-0.1115793,0.4039501,0.4785731,0.2976295,0.2499186,0.01209855,-0.03218372,-0.004055999,0.01848119,3
2014-02-24 18:17:17.928,131,13.1,43.61159,3.911873,22.76795,11.30462,213.8951,9,10,1393262237,0.3580017,-0.5163574,-0.7949066,-23.82223,-44.34415,-27.17464,208.6828,207.9745,25,0.3186222,0.2730915,-0.03127883,-0.1144947,0.4100797,0.4838735,0.3176595,0.2655852,-0.03243961,-0.02889311,-0.01051175,0.01035418,3
2014-02-24 18:17:18.005,132,13.2,43.61159,3.911873,22.76795,11.30462,213.8951,9,10,1393262237,0.3766327,-0.5358582,-0.8111267,-23.93192,-44.2354,-27.06074,208.4161,207.7079,25,0.3268769,0.2463392,0.01715875,-0.1180299,0.416904,0.4908227,0.3029282,0.2631975,-0.033725,0.0008741427,-0.04500581,0.01149748,3
2014-02-24 18:17:18.126,133,13.3,43.61159,3.911873,22.76795,11.30462,213.8951,9,10,1393262237,0.3774109,-0.527832,-0.8033905,-24.20613,-44.61602,-27.23159,208.9722,208.264,25,0.344877,0.246928,0.07363507,-0.1206315,0.4227469,0.4959483,0.3111829,0.2364452,0.01471259,0.0157955,-0.05999227,-0.009036827,3
2014-02-24 18:17:18.216,134,13.4,43.61159,3.911873,22.76795,11.30462,213.8951,9,10,1393262237,0.3793945,-0.5278473,-0.799469,-25.02879,-44.12665,-27.51637,209.4015,208.6932,25,0.3251573,0.2422789,0.07818322,-0.1224362,0.4279947,0.5018635,0.329183,0.2370341,0.07118892,0.01772501,-0.05191414,-0.01252462,3
2014-02-24 18:17:18.464,135,13.5,43.61159,3.911873,22.76795,11.30462,213.8951,9,10,1393262237,0.3905334,-0.5340271,-0.7944183,-26.18052,-45.05102,-26.88987,209.5893,208.881,25,0.2735357,0.1931442,0.07816698,-0.1239414,0.4334753,0.5091943,0.3094789,0.2323888,0.07574061,0.009662246,-0.04032762,-0.01100813,3
2014-02-24 18:17:18.598,136,13.6,43.61159,3.911873,22.76795,11.30462,213.8951,9,10,1393262237,0.3988647,-0.5433044,-0.8078918,-23.98676,-43.96352,-27.68721,211.0946,210.3863,25,0.1814633,0.1265638,0.06150917,-0.1251376,0.4377305,0.5145626,0.2578573,0.183254,0.07572437,0.01142157,-0.0386686,-0.005130741,3
2014-02-24 18:17:18.699,137,13.7,43.61159,3.911873,22.76795,11.30462,213.8951,9,10,1393262237,0.3836212,-0.5369415,-0.8013,-25.30301,-45.05103,-27.68723,210.1518,209.4435,25,0.1136749,0.03671834,0.08871629,-0.1261565,0.4413722,0.5194982,0.1657982,0.1166801,0.05906787,0.01971145,-0.03758252,-0.009540112,3
2014-02-24 18:17:18.772,138,13.8,43.6115,3.911795,23.68108,11.19731,214.5516,9,10,1393262238,0.3694458,-0.5365143,-0.787796,-25.19333,-45.15977,-27.11769,210.0892,209.381,25,0.0694366,-0.02934031,0.09128198,-0.1258174,0.4424379,0.5221016,0.09800993,0.02683465,0.086275,0.02776117,-0.04460157,-0.02457992,3
2014-02-24 18:17:18.892,139,13.9,43.6115,3.911795,23.68108,11.19731,214.5516,9,10,1393262238,0.375824,-0.551651,-0.7905426,-24.64489,-45.26852,-27.00378,209.9136,209.2053,25,0.05110207,-0.03639502,0.07709771,-0.1247047,0.4414702,0.5239568,0.05377169,-0.03922395,0.08884069,0.01367174,-0.03663151,-0.0184672,3
2014-02-24 18:17:18.993,140,14,43.6115,3.911795,23.68108,11.19731,214.5516,9,10,1393262238,0.3648071,-0.5514221,-0.7945862,-25.4127,-44.39852,-27.3455,210.8412,210.1329,25,0.02761858,-0.02741751,0.08851548,-0.1235677,0.4398607,0.5252643,0.03543719,-0.04627864,0.07465644,0.009031286,-0.03032713,-0.012728,3
2014-02-24 18:17:19.067,141,14.1,43.6115,3.911795,23.68108,11.19731,214.5516,9,10,1393262238,0.3648071,-0.5514221,-0.7945862,-25.4127,-44.50727,-27.68723,211.6045,210.8963,25,0.0324634,-0.01824745,0.09668393,-0.1205172,0.4370557,0.527113,0.01679866,-0.02813098,0.09424268,0.005029776,-0.05047224,-0.006588018,3
2014-02-24 18:17:19.217,142,14.2,43.6115,3.911795,23.68108,11.19731,214.5516,9,10,1393262238,0.362915,-0.5544128,-0.7984619,-25.57723,-44.34415,-27.28856,211.3374,210.6292,25,0.04247263,-0.0138045,0.07562125,-0.1167877,0.43346,0.5330575,0.02684847,-0.02369824,0.07320132,-0.00518747,-0.03406733,-0.01020258,3
2014-02-24 18:17:19.317,143,14.3,43.6115,3.911795,23.68108,11.19731,214.5516,9,10,1393262238,0.361969,-0.5583649,-0.7974854,-26.01598,-44.77915,-27.63027,210.8056,210.0974,25,0.04493419,-0.05567232,0.0819191,-0.1152924,0.4312883,0.5362594,0.02933329,-0.06557135,0.07951106,0.003555743,-0.0434888,-0.01755377,3
2014-02-24 18:17:19.577,144,14.4,43.6115,3.911795,23.68108,11.19731,214.5516,9,10,1393262238,0.380249,-0.5638428,-0.8050385,-25.02879,-44.12665,-26.94683,210.5548,209.8465,25,-0.009543438,-0.0829311,0.1274126,-0.1134562,0.4286949,0.5397595,0.02304867,-0.08697873,0.1019586,0.005381696,-0.04443514,-0.01727914,3
2014-02-24 18:17:19.684,145,14.5,43.6115,3.911795,23.68108,11.19731,214.5516,9,10,1393262238,0.380249,-0.5638428,-0.8050385,-23.76739,-45.37727,-26.54815,209.6806,208.9724,25,-0.05418041,-0.1078463,0.1729782,-0.1084116,0.4231941,0.5438216,-0.06972224,-0.1177353,0.1705856,0.02471451,-0.04725672,-0.01507256,3
2014-02-24 18:17:19.781,146,14.6,43.61142,3.911717,24.82539,11.39383,214.9917,9,10,1393262239,0.397049,-0.5932312,-0.8202209,-23.05442,-44.77914,-27.17463,210.282,209.5737,25,-0.09874256,-0.1237787,0.2078989,-0.1084116,0.4231941,0.5438216,-0.06972224,-0.1177353,0.1705856,0.02471451,-0.04725672,-0.01507256,3
2014-02-24 18:17:19.943,147,14.7,43.61142,3.911717,24.82539,11.39383,214.9917,9,10,1393262239,0.397049,-0.5932312,-0.8202209,-21.24458,-46.79102,-25.75082,210.1629,209.4547,25,-0.09186175,-0.1085145,0.2676445,-0.09941979,0.4159724,0.5467868,-0.1073614,-0.1183776,0.2652508,0.04062333,-0.065031,-0.03515631,3
2014-02-24 18:17:20.111,148,14.8,43.61142,3.911717,24.82539,11.39383,214.9917,9,10,1393262239,0.3943481,-0.6003265,-0.8426514,-22.34145,-45.70352,-28.37067,210.0286,209.3203,25,0.04631823,-0.01029365,0.5120196,-0.08440842,0.4070266,0.5531505,0.03083978,-0.02013719,0.5096207,0.07354078,-0.07817567,-0.04449252,3
2014-02-24 18:17:20.217,149,14.9,43.61142,3.911717,24.82539,11.39383,214.9917,9,10,1393262239,0.3591309,-0.5613861,-0.8101807,-22.01239,-45.26852,-27.11771,210.0035,209.2953,25,0.1448373,-0.02991023,0.6574495,-0.07290623,0.4004036,0.5592464,0.129359,-0.03975372,0.6550505,0.06394055,-0.06977895,-0.06204258,3
2014-02-24 18:17:20.305,150,15,43.61142,3.911717,24.82539,11.39383,214.9917,9,10,1393262239,0.3295898,-0.587677,-0.810318,-21.24458,-45.15977,-26.77599,209.959,209.2508,25,0.1540175,-0.006545251,0.7359079,-0.05970932,0.3929159,0.5667979,0.1385393,-0.01638806,0.7335085,0.03612069,-0.02445269,-0.03084317,3
2014-02-24 18:17:20.521,151,15.1,43.61142,3.911717,24.82539,11.39383,214.9917,9,10,1393262239,0.3273621,-0.5747223,-0.8202057,-22.50599,-45.64915,-26.49123,209.5381,208.8299,25,0.2402624,0.01778459,0.7189025,-0.04669311,0.3858374,0.5754317,0.2247842,0.007941811,0.7165031,0.01051902,-0.02353674,-0.04786921,3
2014-02-24 18:17:20.626,152,15.2,43.61142,3.911717,24.82539,11.39383,214.9917,9,10,1393262239,0.3273621,-0.5747223,-0.8202057,-22.99958,-45.15977,-27.57333,207.7317,207.0234,25,0.3648629,0.0185087,0.8315377,-0.03276674,0.3783822,0.5856187,0.3262883,0.01160556,0.7936943,0.02156035,-0.02699685,-0.03691973,3
2014-02-24 18:17:20.700,153,15.3,43.61142,3.911717,24.82539,11.39383,214.9917,9,10,1393262239,0.3036194,-0.5989075,-0.7920074,-22.7802,-45.37727,-28.02895,208.0779,207.3696,25,0.3648629,0.0185087,0.8315377,-0.01884925,0.3709308,0.597423,0.3493848,0.008666022,0.8291382,0.02285887,-0.02108923,-0.05156988,3
2014-02-24 18:17:20.808,154,15.4,43.61142,3.911717,24.82539,11.39383,214.9917,9,10,1393262239,0.3036194,-0.5989075,-0.7920074,-22.28661,-45.86665,-28.54153,207.9355,207.2272,25,0.4135846,0.03635535,0.8904868,-0.004930214,0.3633654,0.6099878,0.3801512,0.0202199,0.8269745,0.02030694,-0.0174288,-0.0482709,3
2014-02-24 18:17:20.883,155,15.5,43.61142,3.911717,24.82539,11.39383,214.9917,9,10,1393262239,0.2801361,-0.5814362,-0.7924042,-22.28661,-46.30165,-28.08591,207.1916,206.4833,25,0.4395015,0.1010073,0.8713347,0.01042817,0.3546824,0.6224249,0.3981066,0.02651273,0.8880874,0.02145557,-0.01590046,-0.03011086,3
2014-02-24 18:17:20.971,156,15.6,43.61142,3.911717,24.82539,11.39383,214.9917,9,10,1393262239,0.2826538,-0.6054077,-0.7873383,-22.12208,-46.46478,-27.45942,206.7515,206.0432,25,0.4672354,0.0644216,0.9470371,0.02641879,0.3464498,0.6353562,0.4240235,0.09116474,0.8689352,0.006837196,0.01202813,-0.03536531,3
2014-02-24 18:17:21.077,157,15.7,43.61142,3.911717,24.82539,11.39383,214.9917,9,10,1393262239,0.2641296,-0.5860291,-0.7867126,-22.72536,-46.8454,-26.94685,206.4167,205.7085,25,0.5460487,0.08987396,0.9358146,0.04350751,0.3371283,0.648424,0.4517574,0.05457905,0.9446377,0.02424508,-0.009609653,-0.04284324,3
2014-02-24 18:17:21.232,158,15.8,43.61132,3.911619,25.42796,12.24301,215.5935,9,10,1393262240,0.1861572,-0.5738678,-0.7262421,-25.19333,-46.13853,-26.32036,207.0321,206.3239,25,0.6007098,0.1226135,0.866807,0.07790083,0.3184256,0.6774434,0.5245788,0.04812975,0.9184189,0.009082759,0.0410944,-0.03608442,3
2014-02-24 18:17:21.458,159,15.9,43.61132,3.911619,25.42796,12.24301,215.5935,9,10,1393262240,0.1753693,-0.5943756,-0.6999054,-26.7838,-45.21415,-28.31371,207.999,207.2907,25,0.5240262,0.1166702,0.7640678,0.09435014,0.3096129,0.6928691,0.585232,0.1127711,0.8644076,-0.0354894,0.07850564,-0.0002001994,3
2014-02-24 18:17:21.578,160,16,43.61132,3.911619,25.42796,12.24301,215.5935,9,10,1393262240,0.1835327,-0.6015167,-0.6948547,-26.67411,-45.7579,-29.22496,208.1901,207.4819,25,0.4716021,0.09993751,0.7062455,0.10938,0.302044,0.7069209,0.5085485,0.1068278,0.7616684,-0.04003041,0.07562785,-0.0002981556,3
2014-02-24 18:17:21.745,161,16.1,43.61132,3.911619,25.42796,12.24301,215.5935,9,10,1393262240,0.182663,-0.613327,-0.6762543,-27.44192,-45.86665,-27.63027,208.3223,207.614,25,0.3716417,-0.002511095,0.6053981,0.1363851,0.2875792,0.7301697,0.3627901,0.07561053,0.6831481,-0.02779027,0.06547938,0.01960925,3
2014-02-24 18:17:21.902,162,16.2,43.61132,3.911619,25.42796,12.24301,215.5935,9,10,1393262240,0.1856995,-0.6554108,-0.6905365,-26.89349,-45.64915,-29.90841,208.4993,207.791,25,0.180871,0.00730292,0.4568312,0.1608827,0.2705947,0.7482172,0.2595583,-0.05331383,0.53443,-0.008240408,0.07471187,0.006572907,3
2014-02-24 18:17:21.979,163,16.3,43.61132,3.911619,25.42796,12.24301,215.5935,9,10,1393262240,0.1856995,-0.6554108,-0.6905365,-26.94833,-46.02977,-29.05411,208.5973,207.889,25,0.1532316,0.04379595,0.3693996,0.1802972,0.257107,0.7585614,0.1377543,0.03395378,0.3670003,-0.01334697,0.04981647,0.01796244,3
2014-02-24 18:17:22.084,164,16.4,43.61132,3.911619,25.42796,12.24301,215.5935,9,10,1393262240,0.2149048,-0.6971283,-0.7142944,-27.49677,-46.24728,-28.71238,208.6526,207.9444,25,0.1142738,0.07817709,0.3123806,0.1874985,0.253156,0.7620772,0.09879652,0.06833494,0.3099813,0.004515408,0.03501477,0.009809785,3
2014-02-24 18:17:22.179,165,16.5,43.61132,3.911619,25.42796,12.24301,215.5935,9,10,1393262240,0.1930084,-0.7085571,-0.7056732,-26.23536,-46.30165,-29.56668,208.827,208.1188,25,0.07213385,0.04645299,0.3545173,0.1939788,0.2503982,0.7645153,0.05665059,0.03662134,0.3521073,0.0360705,-0.004941051,-0.01508408,3
2014-02-24 18:17:22.274,166,16.6,43.61122,3.911519,25.56301,12.15445,216.7216,9,5,1393262241,0.1742706,-0.7162628,-0.7273102,-26.72895,-46.57352,-29.16801,210.3927,209.6844,25,0.01165959,0.09031419,0.369932,0.2031758,0.2451475,0.7665324,-0.003823597,0.08048259,0.367522,0.01818712,-0.01491551,-0.006889405,3
2014-02-24 18:17:22.455,167,16.7,43.61122,3.911519,25.56301,12.15445,216.7216,9,5,1393262241,0.1594391,-0.7161713,-0.7596436,-27.99036,-46.08414,-27.85809,210.1957,209.4875,25,0.07079481,0.1823967,0.3473122,0.2121617,0.2412752,0.7682866,0.05531003,0.1725629,0.3449033,0.002447526,-0.02135869,-0.02903726,3
2014-02-24 18:17:22.638,168,16.8,43.61122,3.911519,25.56301,12.15445,216.7216,9,5,1393262241,0.190918,-0.734787,-0.7523041,-27.33223,-46.4104,-28.54152,210.6474,209.9392,25,0.2758223,0.2669963,0.2405301,0.2249632,0.2416726,0.7765975,0.2380818,0.2684165,0.2495288,0.003924354,-0.02068587,-0.07076313,3
2014-02-24 18:17:22.816,169,16.9,43.61122,3.911519,25.56301,12.15445,216.7216,9,5,1393262241,0.1907806,-0.7336578,-0.7367096,-27.22254,-46.08415,-27.74417,209.7972,209.089,25,0.289275,0.2683921,0.4025347,0.2349101,0.2441797,0.7873749,0.2351723,0.2393946,0.3084368,0.04043213,-0.03360809,-0.05164613,3
2014-02-24 18:17:22.916,170,17,43.61122,3.911519,25.56301,12.15445,216.7216,9,5,1393262241,0.1608887,-0.7020111,-0.7275696,-26.6741,-45.5404,-27.97198,209.9864,209.2782,25,0.3334355,0.2949054,0.4156044,0.2425264,0.2435434,0.7929141,0.2737607,0.2585615,0.4001632,0.02155318,-0.02125651,-0.05564689,3
2014-02-24 18:17:23.043,171,17.1,43.61122,3.911519,25.56301,12.15445,216.7216,9,5,1393262241,0.1325836,-0.6894836,-0.7377167,-26.50957,-45.70352,-29.05409,209.9706,209.2623,25,0.3666672,0.3063951,0.2609613,0.2592123,0.2422556,0.8079225,0.327015,0.3050494,0.3509504,-0.02321884,0.03227088,-0.05215271,3
2014-02-24 18:17:23.141,172,17.2,43.61122,3.911519,25.56301,12.15445,216.7216,9,5,1393262241,0.1768036,-0.7041473,-0.697113,-27.05801,-47.11727,-29.168,209.9017,209.1934,25,0.4020028,0.09515847,0.0322602,0.2665998,0.2413244,0.8132855,0.3511335,0.2965438,0.2585984,-0.03877036,0.04025403,-0.06575184,3
2014-02-24 18:17:23.226,173,17.3,43.61122,3.911519,25.56301,12.15445,216.7216,9,5,1393262241,0.1677246,-0.8034515,-0.6623535,-27.33223,-47.60664,-28.65543,209.6997,208.9914,25,0.1238988,0.06464584,-0.1144054,0.2669633,0.2455648,0.8201273,0.3864692,0.08530728,0.02989734,-0.003749356,0.07100013,-0.07983645,3
2014-02-24 18:17:23.475,174,17.4,43.61113,3.911424,25.52473,11.75642,217.1498,9,5,1393262242,0.2304993,-0.8219299,-0.6809845,-27.00317,-46.51915,-29.11104,211.9229,211.2146,25,0.004167048,0.1295913,-0.3824848,0.2649863,0.2485397,0.8206248,0.108346,0.05479057,-0.1167724,0.01756588,0.06096341,-0.06181026,3
2014-02-24 18:17:23.601,175,17.5,43.61113,3.911424,25.52473,11.75642,217.1498,9,5,1393262242,0.1489716,-0.7730865,-0.6618347,-27.77098,-46.4104,-28.19979,211.0634,210.3552,25,-0.2762225,-0.04027525,-0.3776549,0.2584542,0.2561682,0.8209997,-0.01138568,0.119736,-0.3848518,-0.004948363,-0.07162405,-0.003101993,3
2014-02-24 18:17:23.685,176,17.6,43.61113,3.911424,25.52473,11.75642,217.1498,9,5,1393262242,0.1198273,-0.6250458,-0.6983643,-27.60645,-46.79102,-28.37065,211.1082,210.4,25,-0.3079871,0.1518628,-0.1311364,0.2475039,0.2642267,0.8157637,-0.2917674,-0.05012001,-0.3800271,0.05152111,-0.09368077,-0.01945598,3
2014-02-24 18:17:23.787,177,17.7,43.61113,3.911424,25.52473,11.75642,217.1498,9,5,1393262242,0.1547241,-0.6304626,-0.7876587,-27.88067,-46.95415,-27.51635,210.3102,209.602,25,-0.112142,0.2856302,-0.1751388,0.2443293,0.2678295,0.8087254,-0.323532,0.142018,-0.1335086,-0.03374071,-0.04967879,0.003971138,3
2014-02-24 18:17:23.904,178,17.8,43.61113,3.911424,25.52473,11.75642,217.1498,9,5,1393262242,0.1547241,-0.6304626,-0.7876587,-28.64848,-46.4104,-27.51636,210.6687,209.9604,25,-0.1552175,0.2194884,-0.4681837,0.2373707,0.2804228,0.7971351,-0.1707914,0.2096132,-0.4705427,-0.005767848,0.06487493,-0.02203223,3
2014-02-24 18:17:23.990,179,17.9,43.61113,3.911424,25.52473,11.75642,217.1498,9,5,1393262242,0.2047272,-0.7475586,-0.8193512,-26.18051,-47.44353,-27.34549,211.9793,211.2711,25,-0.3338363,0.03604455,-0.4164928,0.2270075,0.2886074,0.7893489,-0.3494101,0.02616944,-0.4188518,-0.004688014,-0.0570424,-0.0943987,3
2014-02-24 18:17:24.072,180,18,43.61113,3.911424,25.52473,11.75642,217.1498,9,5,1393262242,0.1842651,-0.6091003,-0.7747803,-26.78379,-46.6279,-27.17463,212.8245,212.1162,25,-0.4691105,-0.1959378,-0.239562,0.2230756,0.2898678,0.7800902,-0.4846843,-0.2058129,-0.241921,0.001548087,-0.04421504,-0.1381566,3
2014-02-24 18:17:24.176,181,18.1,43.61105,3.911333,24.95374,11.56507,216.6895,9,5,1393262243,0.2136383,-0.6802521,-0.7280731,-27.1677,-46.13853,-27.00377,213.0126,212.3044,25,-0.4725785,-0.4146712,-0.2339411,0.2238563,0.2818568,0.7651708,-0.4881976,-0.4245675,-0.2362995,-0.01634698,0.08355987,-0.08197683,3
2014-02-24 18:17:24.272,182,18.2,43.61105,3.911333,24.95374,11.56507,216.6895,9,5,1393262243,0.2392731,-0.7389526,-0.764389,-27.33223,-46.30165,-28.19978,213.4027,212.6944,25,-0.141934,-0.2917709,-0.2073292,0.2187328,0.278203,0.7590622,-0.157553,-0.3016671,-0.2096876,0.01440057,0.007989287,-0.03048574,3
2014-02-24 18:17:24.463,183,18.3,43.61105,3.911333,24.95374,11.56507,216.6895,9,5,1393262243,0.2355804,-0.6708527,-0.7415466,-26.83864,-46.02977,-28.82626,213.8956,213.1874,25,-0.04488572,-0.3088982,-0.03261014,0.2168459,0.2742926,0.7574143,-0.06050474,-0.3187943,-0.03496851,0.0317308,-0.02950777,-0.0379291,3
2014-02-24 18:17:24.582,184,18.4,43.61105,3.911333,24.95374,11.56507,216.6895,9,5,1393262243,0.1260834,-0.6263885,-0.7265472,-26.50957,-46.13852,-27.00378,213.5991,212.8909,25,-0.09825413,-0.3665154,0.1844641,0.2192439,0.2658796,0.7553259,-0.1138779,-0.3764053,0.1820995,0.05520523,-0.05574602,-0.08330075,3
2014-02-24 18:17:24.680,185,18.5,43.61105,3.911333,24.95374,11.56507,216.6895,9,5,1393262243,0.1053009,-0.6379395,-0.7315826,-27.05801,-45.70352,-25.97861,213.4863,212.7781,25,-0.02758103,-0.3267965,0.264527,0.2260394,0.2551048,0.7552965,-0.04320472,-0.3366864,0.2621624,-0.01722183,0.05504192,-0.04593676,3
2014-02-24 18:17:24.778,186,18.6,43.61105,3.911333,24.95374,11.56507,216.6895,9,5,1393262243,0.1053009,-0.6379395,-0.7315826,-26.07082,-44.50727,-27.8011,213.5899,212.8817,25,-0.05486778,-0.4559276,0.1587721,0.2337441,0.2415282,0.7546476,0.01018946,-0.3537701,0.2030235,-0.04816726,0.05864344,-0.01918037,3
2014-02-24 18:17:24.930,187,18.7,43.61105,3.911333,24.95374,11.56507,216.6895,9,5,1393262243,0.129303,-0.7232513,-0.5912018,-25.52239,-44.39852,-26.09251,210.9888,210.2805,25,-0.09835932,-0.1184928,0.1597534,0.2420497,0.2224443,0.7576783,-0.01922353,-0.2702972,0.1796381,-0.003492843,-0.007663813,0.1203545,3
2014-02-24 18:17:25.022,188,18.8,43.61105,3.911333,24.95374,11.56507,216.6895,9,5,1393262243,0.1407318,-0.7561188,-0.6854401,-26.01598,-44.99665,-25.35211,209.5911,208.8829,25,-0.2595362,-0.1062473,0.003235741,0.2467119,0.2157087,0.7573012,-0.1139681,-0.128392,0.1574002,-0.02623815,-0.03628861,0.1186497,3
2014-02-24 18:17:25.111,189,18.9,43.61105,3.911333,24.95374,11.56507,216.6895,9,5,1393262243,0.1121826,-0.7872467,-0.6660309,-25.74176,-44.07227,-26.20641,210.6881,209.9798,25,-0.4758193,-0.4546826,-0.1315213,0.2494934,0.2117669,0.7537361,-0.275145,-0.1161465,0.0008825399,-0.01176084,-0.04123351,0.1100962,3
2014-02-24 18:17:25.225,190,19,43.61096,3.911247,23.3447,11.38762,215.1033,9,10,1393262244,0.1026001,-0.7357941,-0.7523499,-24.75458,-43.20227,-26.77593,211.7278,211.0195,25,-0.6113403,-0.629979,-0.2366919,0.2499415,0.2049174,0.7484888,-0.4913985,-0.4645788,-0.1338672,-0.03587789,-0.09314938,0.002483251,3
2014-02-24 18:17:25.302,191,19.1,43.61096,3.911247,23.3447,11.38762,215.1033,9,10,1393262244,0.0737915,-0.7627563,-0.7095795,-23.6577,-43.31102,-26.20639,211.438,210.7298,25,-0.8190334,-0.8843644,-0.382843,0.2479569,0.1957857,0.7377897,-0.6269195,-0.6398752,-0.2390378,-0.03475738,-0.1038353,0.02260381,3
2014-02-24 18:17:25.529,192,19.2,43.61096,3.911247,23.3447,11.38762,215.1033,9,10,1393262244,0.02519226,-0.6812744,-0.7653656,-23.32864,-43.63728,-26.88984,209.5877,208.8795,25,-0.6469615,-0.8035998,-0.3702468,0.2369819,0.171932,0.7070966,-0.6625403,-0.8134961,-0.3725924,-0.056277,-0.1131272,0.03946266,3
2014-02-24 18:17:25.602,193,19.3,43.61096,3.911247,23.3447,11.38762,215.1033,9,10,1393262244,0.08639526,-0.7401733,-0.7183838,-24.09645,-43.85477,-25.86468,207.726,207.0177,25,-0.4691624,-0.7666796,-0.6023477,0.2274757,0.16376,0.695168,-0.4847409,-0.7765768,-0.6046925,-0.1000052,-0.04075997,-0.007693616,3
