time,timestamp,recordtime,lat,long,alt,speed,course,verticalAccuracy,horizontalAccuracy,locTimeStamp,accelerationX,accelerationY,accelerationZ,HeadingX,HeadingY,HeadingZ,TrueHeading,MagneticHeading,HeadingAccuracy,RotationX,RotationY,RotationZ,motionYaw,motionRoll,motionPitch,motionRotationRateX,motionRotationRateY,motionRotationRateZ,motionUserAccelerationX,motionUserAccelerationY,motionUserAccelerationZ,DeviceOrientation
2014-02-24 18:37:28.563,1,0.1,43.60563,3.913171,33.26708,1.266214,353.1319,14.51331,10,1393263447,-0.977066,0.03134155,0.02926636,-63.37624,-7.527325,-43.37999,353.1021,352.3911,26,0.008577509,0.03859054,-0.001467402,1.534341,-1.599681,-0.01898788,-0.007485699,-0.07201707,0.000392603,0.0008064756,-0.001362835,-0.03488778,5
2014-02-24 18:37:28.749,2,0.2,43.60563,3.913168,31.57401,1.278125,354.8718,14.33155,10,1393263448,-1.062866,-0.08830261,0.04669189,-66.82971,-4.210506,-46.28156,347.407,346.696,26,0.01479759,-0.02029489,-0.0008330368,1.534348,-1.602037,-0.01552228,-0.002680725,0.02774366,-0.0005529601,-0.06640426,-0.06865276,0.0395537,5
2014-02-24 18:37:28.874,3,0.3,43.60563,3.913168,31.57401,1.278125,354.8718,14.33155,10,1393263448,-1.013763,0.02102661,0.0006103516,-67.7616,-3.612396,-45.8833,346.339,345.628,26,0.001280182,0.03052542,-0.01084359,1.534432,-1.601846,-0.01547533,0.003539396,-0.03114172,8.140138e-05,-0.01250352,0.008527363,-0.02164104,5
2014-02-24 18:37:28.976,4,0.4,43.60563,3.913168,31.57401,1.278125,354.8718,14.33155,10,1393263448,-1.04808,-0.02879333,0.04252625,-69.0224,-3.77552,-44.68853,346.2242,345.5132,26,0.006220612,-0.01020816,-0.006879478,1.534405,-1.602011,-0.01535625,-0.009977979,0.01967861,-0.009929157,-0.06347119,-0.1036583,0.01548628,5
2014-02-24 18:37:29.082,5,0.5,43.60563,3.913168,31.57401,1.278125,354.8718,14.33155,10,1393263448,-0.9324188,0.06307983,0.005142212,-68.52905,-4.047386,-43.03863,347.4533,346.7423,26,0.005893043,0.01841256,0.02920423,1.534326,-1.602232,-0.0160186,-0.005233365,-0.02096771,-0.005975131,-0.01438573,0.005008693,-0.03081649,5
2014-02-24 18:37:29.171,6,0.6,43.60563,3.913168,31.57401,1.278125,354.8718,14.33155,10,1393263448,-1.04744,-0.06065369,0.05349731,-68.85794,-3.829891,-43.03863,347.4072,346.6962,26,0.01217571,0.02059742,0.01281966,1.534305,-1.602784,-0.01622047,-0.005560881,0.007653069,0.03010857,-0.04872348,-0.04501309,0.01054858,5
2014-02-24 18:37:29.299,7,0.7,43.60563,3.913168,31.57401,1.278125,354.8718,14.33155,10,1393263448,-1.04744,-0.06065369,0.05349731,-68.03569,-2.905533,-44.23339,347.222,346.511,26,0.01490411,-0.06341732,-0.007449927,1.534359,-1.603137,-0.01449254,0.00344917,-0.07417751,-0.00655533,-0.01953351,-0.03911971,-0.01290701,5
2014-02-24 18:37:29.504,8,0.8,43.60563,3.913168,31.57401,1.278125,354.8718,14.33155,10,1393263448,-1.015747,-0.04237366,0.05665588,-69.29649,-2.633659,-43.03863,344.8896,344.1786,26,0.008479238,0.08283656,0.003964914,1.534395,-1.605637,-0.01801279,-0.002973901,0.07206603,0.00487484,0.05800785,0.0587399,0.03838366,5
2014-02-24 18:37:29.679,9,0.9,43.60563,3.913168,31.57401,0,354.8718,9.5,5,1393263449,-0.9421082,0.1088715,0.09735107,-67.48752,9.056747,-37.74754,331.0587,330.3477,26,0.005161739,0.08810323,-0.04304228,1.534643,-1.605503,-0.01845005,0.02642907,-0.1471986,0.05422135,0.005544834,-0.09643667,-0.005808726,1
2014-02-24 18:37:29.826,10,1,43.60563,3.913168,31.57401,0,354.8718,9.5,5,1393263449,-1.040665,0.008728027,0.01112366,-68.47423,6.99054,-30.12381,331.3016,330.5906,26,0.01586791,0.06930318,0.00534097,1.534655,-1.608521,-0.01818608,-0.006291634,0.07731924,-0.04213406,0.05701513,0.09068638,0.05964214,1
2014-02-24 18:37:29.982,11,1.1,43.60563,3.913168,31.57401,0,354.8718,9.5,5,1393263449,-1.043411,-0.08911133,-0.00378418,-69.6802,9.926739,-21.58979,328.967,328.256,26,0.01799844,0.03455105,0.05145174,1.534664,-1.606735,-0.01817508,0.004414562,0.05851921,0.006249184,-0.02704065,-0.0872201,0.024713,1
2014-02-24 18:37:30.097,12,1.2,43.60563,3.913168,31.57401,0,354.8718,9.5,5,1393263449,-1.01593,-0.03536987,0.05952454,-24.56575,38.90807,29.55744,315.4053,314.6943,26,0.03186952,-0.05963244,0.02434955,1.534796,-1.607074,-0.01862307,0.02041627,-0.07041631,0.02525775,-0.0399548,-0.0339113,-0.02884785,1
2014-02-24 18:37:30.313,13,1.3,43.60563,3.913168,31.57401,0,354.8718,9.5,5,1393263449,-1.033447,0.08448792,0.0282135,16.54707,56.634,-4.806213,298.5919,297.8809,26,0.01356774,0.02837305,-0.008358598,1.534896,-1.606299,-0.01926095,0.00183627,-0.03760955,0.03531731,0.0374993,0.01144093,-0.04798529,1
2014-02-24 18:37:30.497,14,1.4,43.60563,3.913168,31.57401,0,354.8718,9.5,5,1393263449,-1.10376,-0.05249023,0.04205322,8.269688,49.61975,-55.38451,287.6551,286.9441,26,0.01092322,0.01494886,0.01638217,1.534959,-1.605914,-0.01948481,0.002114612,0.0175893,-0.007450402,-0.03425353,0.06500434,-0.006890307,1
2014-02-24 18:37:30.570,15,1.5,43.60563,3.913168,31.57401,0,354.8718,9.5,5,1393263450,-0.9099884,0.09645081,-0.003631592,-0.1721458,47.66228,-59.13948,285.3678,284.6568,26,0.0112926,0.01572011,-0.02937307,1.534974,-1.606111,-0.01977231,-0.0005298526,0.00416515,0.01729036,-0.1045786,-0.07226126,0.006753212,1
2014-02-24 18:37:30.803,16,1.6,43.60563,3.913168,31.57401,0,354.8718,9.5,5,1393263450,-1.021057,-0.08496094,-0.054245,-24.89466,34.34066,-36.09762,289.0932,288.3822,26,0.02084243,0.01495099,0.007092531,1.535063,-1.606746,-0.01953222,-0.01128282,-0.02679882,-0.01770358,-0.1144232,0.09092739,0.02625943,3
2014-02-24 18:37:30.948,17,1.7,43.60563,3.913168,31.57401,0,354.8718,9.5,5,1393263450,-1.021057,-0.08496094,-0.054245,-23.63386,35.70002,-32.17198,286.9592,286.2482,26,0.002651976,0.1141692,-0.0409746,1.535035,-1.604808,-0.01887363,-0.008800949,0.1033856,-0.04006642,-0.03591259,-0.04195906,0.008633928,3
2014-02-24 18:37:31.072,18,1.8,43.60563,3.913168,31.57401,0,354.8718,9.5,5,1393263450,-0.970932,0.1101837,0.05116272,-20.72856,36.84187,-30.06692,278.6073,277.8963,26,0.02225151,-0.1233238,0.006109292,1.535204,-1.606233,-0.01880275,0.01079864,-0.1341073,0.007017468,-0.0218616,-0.1037626,-0.08966813,3
2014-02-24 18:37:31.215,19,1.9,43.60563,3.913168,31.57401,0,354.8718,9.5,5,1393263450,-1.088989,0.1074829,0.001052856,-18.91959,35.37377,-30.80653,270.6095,269.8985,26,0.01606872,0.03514547,-0.01426602,1.535379,-1.606968,-0.0186053,0.004615887,0.02436199,-0.01335785,0.02824092,0.09157949,0.01500539,3
2014-02-24 18:37:31.321,20,2,43.60563,3.913168,31.57401,0,354.8718,9.5,5,1393263450,-1.093124,-0.02500916,0.01077271,-19.41294,36.51562,-31.20479,269.0139,268.3029,26,0.02709234,-0.01226545,-0.0007933557,1.535406,-1.606575,-0.01860329,0.01563956,-0.02304888,0.0001148125,-0.08980218,0.0888807,-0.03471239,3
2014-02-24 18:37:31.500,21,2.1,43.60563,3.913168,31.57401,0,354.8718,9.5,5,1393263450,-1.057098,-0.0559845,-0.01976013,-17.76843,37.27686,-30.86343,270.946,270.235,26,0.01117968,0.07243292,-0.02406193,1.535496,-1.606411,-0.0183276,-0.0002730706,0.06164952,-0.02315376,-0.04486934,-0.09114151,0.002424212,3
2014-02-24 18:37:31.578,22,2.2,43.60563,3.913168,31.57401,0,354.8718,9.5,5,1393263451,-0.9651489,0.07029724,0.0690918,-16.28837,37.43998,-31.48925,272.1201,271.4091,26,0.01363725,-0.05659857,-0.004009122,1.535453,-1.606164,-0.01810514,0.002184547,-0.06738192,-0.00310096,0.03320741,0.03347056,-0.07339492,3
2014-02-24 18:37:31.684,23,2.3,43.60563,3.913168,31.57401,0,354.8718,9.5,5,1393263451,-0.9651489,0.07029724,0.0690918,-15.63057,36.67874,-31.60304,271.8019,271.0909,26,0.01372167,0.03501524,-0.02836453,1.535701,-1.608371,-0.01836298,0.01566339,-0.06835446,0.004076255,-0.07559661,-0.02846327,0.02304843,3
2014-02-24 18:37:31.788,24,2.4,43.60563,3.913168,31.57401,0,354.8718,9.5,5,1393263451,-0.9707642,-0.08126831,0.06137085,-13.76679,36.02626,-33.08227,272.2638,271.5528,26,0.01372167,0.03501524,-0.02836453,1.535713,-1.607748,-0.01816673,0.002269066,0.02423198,-0.02745637,-0.045037,0.01258073,-0.02405912,3
2014-02-24 18:37:31.941,25,2.5,43.60563,3.913168,31.57401,0,354.8718,9.5,5,1393263451,-0.9168091,0.0397644,-0.0003509521,-10.64221,33.79693,-33.82188,268.062,267.351,26,0.02718235,-0.0655601,-0.003791809,1.535985,-1.608677,-0.01771969,0.00574856,0.05163677,-0.005401412,0.02836158,-0.09898707,0.02350535,3
2014-02-24 18:37:32.038,26,2.6,43.60563,3.913168,31.57401,0,354.8718,9.5,5,1393263451,-0.9499512,0.01712036,0.07453918,-12.72526,34.23191,-34.16325,267.1631,266.4521,26,0.01732786,-0.01468307,-0.01024838,1.536158,-1.609069,-0.01753559,0.01572987,-0.07634325,-0.002883664,0.08230499,0.02222971,-0.038608,3
2014-02-24 18:37:32.185,27,2.7,43.60563,3.913168,31.57401,0,354.8718,9.5,5,1393263451,-1.010727,-0.08740234,0.05607605,-13.32825,32.65507,-33.76499,261.9763,261.2653,26,0.01481969,0.07590808,-0.01819525,1.536289,-1.610331,-0.01745103,0.005875403,-0.0254662,-0.009340233,-0.01103487,-0.08596211,0.007630916,3
2014-02-24 18:37:32.297,28,2.8,43.60563,3.913168,31.57401,0,354.8718,9.5,5,1393263451,-0.9293976,0.02882385,-0.03160095,-13.4927,31.73071,-36.78035,259.954,259.243,26,0.01356508,0.03063967,-0.008380702,1.536417,-1.610206,-0.01736929,0.00336729,0.065125,-0.01728711,0.08632256,0.04766455,0.01961193,3
2014-02-24 18:37:32.496,29,2.9,43.60563,3.913168,31.57401,0,354.8718,9.5,5,1393263451,-0.9359283,0.1085815,0.07499695,-13.38307,32.49195,-38.032,259.7936,259.0826,26,0.03331694,-0.09153258,0.00238566,1.536356,-1.608883,-0.0172665,0.002112728,0.01985664,-0.007472567,-0.02127516,-0.01110109,-0.04521275,3
2014-02-24 18:37:32.583,30,3,43.60563,3.913168,31.57401,0,354.8718,9.5,5,1393263451,-1.084686,-0.04219055,0.008071899,-12.61562,32.3832,-37.91821,259.7448,259.0338,26,0.01979874,0.08381474,-0.0264364,1.536554,-1.612414,-0.01686105,0.02186423,-0.1023268,0.003291212,-0.06626973,-0.007094625,0.0365409,3
2014-02-24 18:37:32.688,31,3.1,43.60563,3.913168,31.57401,0,354.8718,9.5,5,1393263451,-1.03009,-0.00668335,-0.01690674,-12.88971,31.67634,-37.63374,259.7643,259.0533,26,0.02090715,0.05790618,-0.007403322,1.536779,-1.612392,-0.01679649,0.00834606,0.07302054,-0.02553085,0.06306575,0.09178584,0.03341929,3
2014-02-24 18:37:32.885,32,3.2,43.60563,3.913168,31.57401,0,354.8718,9.5,5,1393263452,-0.9488831,0.110672,-0.08705139,-11.40965,31.94821,-36.55277,259.8222,259.1112,26,0.01726714,0.05443075,-0.01326973,1.537075,-1.607722,-0.01916267,0.005602195,0.04838973,0.01341008,-0.03095548,-0.02584485,-0.05381729,3
2014-02-24 18:37:33.009,33,3.3,43.60563,3.913168,31.57401,0,354.8718,9.5,5,1393263452,-0.9488831,0.110672,-0.08705139,-11.84819,31.18697,-36.21141,259.7948,259.0838,26,0.009843576,0.07365877,-0.01118235,1.537257,-1.600426,-0.01587641,-0.001608037,0.062909,-0.01027844,-0.06277499,-0.05309193,-0.0925035,3
2014-02-24 18:37:33.239,34,3.4,43.60563,3.913168,31.57401,0,354.8718,9.5,5,1393263452,-1.111298,-0.08407593,-0.06993103,-10.64221,30.86073,-35.87005,259.8022,259.0912,26,0.0219085,0.09210143,0.01573475,1.537702,-1.600176,-0.01631348,0.01045697,0.08135174,0.01663865,0.00296021,-0.001755875,-0.04022104,3
2014-02-24 18:37:33.464,35,3.5,43.60563,3.913168,31.57401,0,354.8718,9.5,5,1393263452,-0.9861603,0.05403137,-0.1738739,-10.91629,34.06879,-36.26831,263.4131,262.7021,26,0.01346654,0.1575262,-0.01548548,1.53779,-1.597472,-0.01613792,0.002015056,0.1467766,-0.01458159,-0.1117835,-0.1002131,-0.09660015,3
2014-02-24 18:37:33.549,36,3.6,43.60563,3.913168,31.57401,0,354.8718,9.5,5,1393263452,-1.006943,0.02687073,-0.1290283,-9.984409,34.12317,-35.87005,263.2519,262.5409,26,-0.004814729,0.1130624,-0.03047775,1.537633,-1.594709,-0.0160569,-0.01626616,0.1023128,-0.02957386,0.01342495,0.03797517,-0.1977816,3
2014-02-24 18:37:33.672,37,3.7,43.60563,3.913168,31.57401,0,354.8718,9.5,5,1393263452,-0.9280548,0.0743866,0.06265259,-10.31331,34.23191,-35.64248,263.3574,262.6464,26,0.007268299,0.2390315,-0.02220597,1.538023,-1.599042,-0.01667122,0.04149437,-0.3816898,0.05312981,-0.05833807,-0.07299064,-0.2313779,3
2014-02-24 18:37:33.771,38,3.8,43.60563,3.913168,31.57401,0,354.8718,9.5,5,1393263452,-0.9375916,0.04179382,-0.3331757,-10.9163,34.17754,-36.04073,263.3708,262.6598,26,-0.02592348,0.4606273,-0.05988091,1.53856,-1.600648,-0.01720063,-0.004183057,0.228282,-0.02130209,-0.02317639,0.02627251,0.1548499,3
2014-02-24 18:37:33.895,39,3.9,43.60563,3.913168,31.57401,0,354.8718,9.5,5,1393263452,-1.033676,0.0534668,0.01477051,-10.03923,34.39503,-36.49588,263.3773,262.6663,26,0.05026876,-0.3481074,0.07543936,1.538088,-1.591325,-0.01615983,-0.03737478,0.4498778,-0.05897703,-0.1415003,-0.03157051,-0.2064071,3
2014-02-24 18:37:33.984,40,4,43.60563,3.913168,31.57401,0,354.8718,9.5,5,1393263453,-1.018066,0.04776001,0.09985352,-12.23191,34.28629,-35.35801,263.3945,262.6835,26,0.02954591,-0.1129923,0.01546338,1.537844,-1.593767,-0.01610089,0.0388175,-0.3588568,0.07634324,-0.01742222,-0.1539176,-0.1967485,3
2014-02-24 18:37:34.088,41,4.1,43.60563,3.913168,31.57401,0,354.8718,9.5,5,1393263453,-0.8831482,0.05889893,-0.2819519,-11.84819,36.18938,-36.09762,263.3915,262.6805,26,-0.001030377,0.3869573,-0.08355828,1.538798,-1.598817,-0.01703712,0.01809468,-0.1237417,0.01636725,-0.03421377,0.0364305,-0.01324235,3
2014-02-24 18:37:34.238,42,4.2,43.60563,3.913168,31.57401,0,354.8718,9.5,5,1393263453,-1.02002,0.0340271,-0.008331299,-11.2452,36.02626,-36.60966,263.3892,262.6782,26,-0.01332699,0.02572853,-0.0297073,1.538728,-1.593942,-0.01617338,-0.01248156,0.3762079,-0.08265441,-0.01846501,0.03158734,0.07671257,3
2014-02-24 18:37:34.355,43,4.3,43.60563,3.913168,31.57401,0,354.8718,9.5,5,1393263453,-1.02002,0.0340271,-0.008331299,-11.30001,36.29813,-36.55277,263.3817,262.6707,26,0.04784635,-0.2496753,0.0556859,1.538561,-1.594218,-0.01610676,0.03639524,-0.2604246,0.05658976,0.02634472,-0.09301036,-0.1932311,3
2014-02-24 18:37:34.511,44,4.4,43.60563,3.913168,31.57401,0,354.8718,9.5,5,1393263453,-0.9794769,-0.05117798,-0.07937622,-11.84819,36.62437,-37.80443,263.4004,262.6894,26,0.02352903,-0.007890946,-0.01729377,1.538561,-1.594218,-0.01610676,0.03639524,-0.2604246,0.05658976,0.02634472,-0.09301036,-0.1932311,3
2014-02-24 18:37:34.685,45,4.5,43.60563,3.913168,31.57401,0,354.8718,9.5,5,1393263453,-0.9514618,0.01177979,0.02090454,-10.75184,36.62437,-37.12171,263.4876,262.7766,26,0.020766,-0.05063335,0.02650165,1.538941,-1.594436,-0.01664253,0.009315016,-0.06138253,0.0274055,0.02010522,-0.06781974,-0.1030105,3
2014-02-24 18:37:34.787,46,4.6,43.60569,3.913177,25.59124,0,354.8718,9.5,5,1393263454,-1.015015,-0.01780701,-0.1278381,-11.62892,36.18938,-38.71472,263.6206,262.9096,26,0.01203775,0.0580902,0.02418337,1.539209,-1.595845,-0.01686821,0.0005868239,0.04734107,0.02508722,0.04808227,-0.005087627,-0.004138398,3
2014-02-24 18:37:34.897,47,4.7,43.60569,3.913177,25.59124,0,354.8718,9.5,5,1393263454,-1.030533,0.01423645,-0.1614227,-13.65715,36.57,-39.11298,263.597,262.886,26,0.01484366,0.09626155,-0.02425927,1.539266,-1.593438,-0.01648634,0.003198173,0.08559527,-0.02337147,-0.01540682,-0.0342926,-0.1504749,3
2014-02-24 18:37:34.986,48,4.8,43.60569,3.913177,25.59124,0,354.8718,9.5,5,1393263454,-1.120224,0.0214386,0.004257202,-14.20532,36.24376,-39.45434,263.5903,262.8793,26,0.0272966,-0.1234061,-0.009091499,1.539402,-1.594227,-0.01661897,0.01565116,-0.1340723,-0.008203708,-0.03094538,-0.002381749,-0.1848482,3
2014-02-24 18:37:35.184,49,4.9,43.60569,3.913177,25.59124,0,354.8718,9.5,5,1393263454,-1.013535,-0.03483582,0.00201416,-14.47941,37.6031,-38.9423,263.5884,262.8774,26,0.02332263,0.04778111,-0.000242614,1.539975,-1.598249,-0.01664109,0.00541138,-0.01263239,0.02218642,0.03995111,-0.0007406661,-0.01445989,3
2014-02-24 18:37:35.308,50,5,43.60569,3.913177,25.59124,0,354.8718,9.5,5,1393263454,-0.9417877,0.008010864,-0.05792236,-14.69868,36.95061,-39.51124,263.5887,262.8777,26,0.02332263,0.04778111,-0.000242614,1.540176,-1.597624,-0.01647327,0.01167732,0.03711497,0.0006451675,0.02851148,-0.04483861,-0.1014062,3
2014-02-24 18:37:35.472,51,5.1,43.60569,3.913177,25.59124,0,354.8718,9.5,5,1393263454,-0.9417877,0.008010864,-0.05792236,-14.53422,36.02626,-39.68192,263.5783,262.8673,26,0.01470225,-0.08586085,0.02092153,1.540302,-1.597415,-0.01614275,0.01183314,0.000737011,-0.01307544,-0.004009277,0.01808342,-0.09520016,3
2014-02-24 18:37:35.572,52,5.2,43.60569,3.913177,25.59124,0,354.8718,9.5,5,1393263454,-0.9636688,-0.02096558,0.006393433,-15.30166,36.13501,-39.11298,263.5759,262.8649,26,0.02097639,-0.02706544,-0.003054113,1.540556,-1.598969,-0.01600904,0.00305701,-0.09652691,0.0218093,0.05768738,-0.007997494,-0.08608731,3
2014-02-24 18:37:35.713,53,5.3,43.60569,3.913177,25.59124,0,354.8718,9.5,5,1393263455,-1.051392,0.005706787,-0.02601624,-15.35648,36.08063,-39.62502,263.5613,262.8503,26,0.008398012,0.1202737,0.008291219,1.540756,-1.600159,-0.0159303,0.009331205,-0.03773145,-0.002166342,0.03577329,-0.0368952,-0.02296136,3
2014-02-24 18:37:35.833,54,5.4,43.60569,3.913177,25.59124,0,354.8718,9.5,5,1393263455,-1.053879,0.08622742,-0.07052612,-15.35648,35.3194,-39.05608,263.5583,262.8474,26,0.02183712,-0.03575107,0.0439632,1.540863,-1.598758,-0.01612876,-0.003247128,0.1096077,0.009178988,-0.05191253,-0.01042128,-0.05397096,3
2014-02-24 18:37:35.921,55,5.5,43.60569,3.913177,25.59124,0,354.8718,9.5,5,1393263455,-1.057388,0.04580688,-0.01274109,-16.39801,35.91751,-40.25085,263.5506,262.8396,26,0.02336578,-0.07225875,0.0126604,1.541057,-1.599044,-0.01634682,0.01019202,-0.04641702,0.04485096,-0.0344833,0.001277806,-0.1448326,3
2014-02-24 18:37:36.050,56,5.6,43.60569,3.913177,25.59124,0,354.8718,9.5,5,1393263455,-1.027298,0.01202393,-0.04432678,-16.67209,36.18938,-40.6491,263.5458,262.8348,26,0.009967946,0.06448072,-0.025169,1.541376,-1.600003,-0.01644525,0.01172072,-0.08292464,0.01354816,0.0410338,-0.03876812,-0.05587115,3
2014-02-24 18:37:36.131,57,5.7,43.60569,3.913177,25.59124,0,354.8718,9.5,5,1393263455,-0.9916534,0.01072693,-0.1121521,-16.78173,36.95062,-40.99046,263.5437,262.8327,26,0.02093058,0.09524103,-0.01597897,1.541529,-1.600131,-0.0166769,-0.001677065,0.05381487,-0.02428124,-0.004917994,0.03106863,-0.02294862,3
2014-02-24 18:37:36.268,58,5.8,43.60569,3.913177,25.59124,0,354.8718,9.5,5,1393263455,-0.9434204,0.01940918,-0.003448486,-15.57575,36.18938,-40.30775,263.5374,262.8264,26,0.03081597,-0.08132388,0.005781456,1.541678,-1.598226,-0.01646748,0.009285606,0.08457521,-0.01509121,-0.02780969,-0.00444281,-0.0717496,3
2014-02-24 18:37:36.447,59,5.9,43.60569,3.913177,25.59124,0,354.8718,9.5,5,1393263455,-0.9876251,0.02035522,-0.14534,-15.57575,34.55816,-40.76289,263.5123,262.8013,26,0.03449086,0.06475556,-0.01437841,1.542036,-1.598964,-0.01643369,0.01917104,-0.09198967,0.006669209,0.0078149,-0.005706017,-0.1403122,3
2014-02-24 18:37:36.547,60,6,43.60569,3.913177,25.59124,0,354.8718,9.5,5,1393263455,-1.053345,0.004730225,-0.02896118,-15.30166,34.72128,-39.7957,263.4932,262.7822,26,0.01584927,0.1678098,-0.007351124,1.542449,-1.596912,-0.01652517,0.02284622,0.05410226,-0.01348896,0.05610211,0.002884761,-0.02955752,3
2014-02-24 18:37:36.662,61,6.1,43.60569,3.913177,25.59124,0,354.8718,9.5,5,1393263455,-1.053345,0.004730225,-0.02896118,-14.86313,34.83002,-39.11298,263.4839,262.7729,26,0.03168709,-0.1239816,0.0566497,1.542781,-1.595456,-0.01653919,0.02004252,-0.1346348,0.05753914,0.04535087,-0.06551915,-0.13499,3
2014-02-24 18:37:36.761,62,6.2,43.60569,3.913177,25.59124,0,354.8718,9.5,5,1393263456,-1.00119,-0.07453918,-0.2023621,-15.46612,34.6669,-39.28365,263.4759,262.7649,26,0.02217934,0.05447842,-0.01205,1.542781,-1.595456,-0.01653919,0.02004252,-0.1346348,0.05753914,0.04535087,-0.06551915,-0.13499,3
2014-02-24 18:37:36.837,63,6.3,43.60569,3.913177,25.59124,0,354.8718,9.5,5,1393263456,-1.00119,-0.07453918,-0.2023621,-16.50764,35.04752,-40.02327,263.4657,262.7547,26,0.0002969425,0.2532898,-0.07520181,1.543111,-1.588536,-0.01565332,-0.01134751,0.242656,-0.07431666,-0.06221526,-0.04827597,0.007089381,3
2014-02-24 18:37:36.950,64,6.4,43.60569,3.913177,25.59124,0,354.8718,9.5,5,1393263456,-1.042709,0.04193115,-0.08956909,-15.52093,35.37377,-41.61629,263.445,262.734,26,0.04651131,-0.0763784,0.04225052,1.543714,-1.591714,-0.01664743,0.03486696,-0.08701211,0.04313566,0.01973852,0.007767399,0.006414987,3
2014-02-24 18:37:37.085,65,6.5,43.60569,3.913177,25.59124,0,354.8718,9.5,5,1393263456,-1.020187,-0.04196167,-0.1735687,-15.7402,35.15627,-41.04736,263.4368,262.7258,26,0.000942759,0.2821707,-0.00743741,1.543639,-1.58854,-0.01675117,-0.01070154,0.271537,-0.006552271,-0.04300703,0.02518076,-0.1073089,3
2014-02-24 18:37:37.195,66,6.6,43.60569,3.913177,25.59124,0,354.8718,9.5,5,1393263456,-0.9379272,-0.03292847,-0.04881287,-15.74021,34.17754,-40.25085,263.3954,262.6844,26,0.02165576,0.006311692,0.05997439,1.543618,-1.58644,-0.01683957,0.01001149,-0.004321952,0.06085952,0.066371,-0.07776712,-0.1948708,3
2014-02-24 18:37:37.308,67,6.7,43.60569,3.913177,25.59124,0,354.8718,9.5,5,1393263456,-0.9720001,0.102417,-0.05995178,-15.68538,34.55816,-40.76289,263.363,262.652,26,0.03828214,-0.1537994,0.006560431,1.543982,-1.58846,-0.01734445,0.02663792,-0.164433,0.007445564,-0.06483581,0.07555193,-0.163458,3
2014-02-24 18:37:37.565,68,6.8,43.60569,3.913177,25.59124,0,354.8718,9.5,5,1393263456,-0.9720001,0.102417,-0.05995178,-16.45282,34.12317,-39.62502,263.3524,262.6414,26,0.01692945,0.1170241,0.01896277,1.544209,-1.588418,-0.01809916,0.009137006,0.1153188,-0.001317838,-0.04475261,0.02848691,-0.02144771,3
2014-02-24 18:37:37.662,69,6.9,43.60569,3.913177,25.59124,0,354.8718,9.5,5,1393263457,-1.003906,-0.0171051,0.002944946,-16.56245,34.12317,-40.87668,263.3427,262.6317,26,0.01692945,0.1170241,0.01896277,1.544293,-1.585939,-0.01786433,0.005285299,0.1063906,0.0198479,0.02772569,0.08455361,-0.07509105,3
2014-02-24 18:37:37.738,70,7,43.60569,3.913177,25.59124,0,354.8718,9.5,5,1393263457,-1.003906,-0.0171051,0.002944946,-17.00099,34.23192,-40.08017,263.3333,262.6223,26,0.02579671,-0.07107817,0.01619122,1.544517,-1.587342,-0.01796044,0.0189202,-0.1290693,0.04339264,0.03862702,-0.07376087,-0.1288321,3
2014-02-24 18:37:37.865,71,7.1,43.60569,3.913177,25.59124,0,354.8718,9.5,5,1393263457,-0.9375763,0.09454346,-0.07411194,-16.23356,34.23191,-40.87668,263.3256,262.6146,26,0.006378004,0.2817079,-0.0707285,1.544799,-1.589572,-0.01825249,0.01415267,-0.08171161,0.01707634,-0.004249042,-0.03535658,-0.01582607,3
2014-02-24 18:37:37.950,72,7.2,43.60569,3.913177,25.59124,0,354.8718,9.5,5,1393263457,-0.9863892,-0.02774048,-0.1703186,-16.72691,34.50378,-40.02327,263.3246,262.6136,26,0.03438887,-0.2011773,0.03865951,1.544876,-1.586132,-0.01799738,-0.005265994,0.2710744,-0.06984338,0.06214419,0.07654704,-0.08944466,3
2014-02-24 18:37:38.086,73,7.3,43.60569,3.913177,25.59124,0,354.8718,9.5,5,1393263457,-0.9671478,0.02058411,0.08407593,-15.79502,33.47068,-41.10426,263.3067,262.5957,26,0.06289108,-0.2204003,0.01683198,1.545112,-1.586432,-0.01823581,0.02274489,-0.2118107,0.03954463,-0.01952981,-0.09141595,-0.2250283,3
2014-02-24 18:37:38.193,74,7.4,43.60569,3.913177,25.59124,0,354.8718,9.5,5,1393263457,-0.9805603,-0.02471924,-0.149826,-14.86313,32.98131,-40.36464,263.2945,262.5835,26,0.008702145,0.293181,-0.05556792,1.545884,-1.591657,-0.01904659,0.05124716,-0.2310336,0.01771709,0.002118789,0.006238374,-0.06588376,3
2014-02-24 18:37:38.319,75,7.5,43.60569,3.913177,25.59124,0,354.8718,9.5,5,1393263457,-1.083694,-0.04908752,-0.1137543,-15.24685,33.57942,-40.76289,263.2953,262.5843,26,0.02324327,0.04219805,0.01036875,1.546115,-1.589989,-0.01910877,-0.002941724,0.2825477,-0.05468281,-0.08599903,0.06551763,0.006462117,3
2014-02-24 18:37:38.514,76,7.6,43.60569,3.913177,25.59124,0,354.8718,9.5,5,1393263457,-0.9700317,0.07516479,0.1762848,-15.52093,32.76382,-40.25085,263.2945,262.5835,26,0.07397702,-0.4286243,0.0471249,1.545907,-1.586139,-0.01834458,0.01159942,0.0315648,0.01125386,0.01915377,-0.04306279,-0.1651654,3
2014-02-24 18:37:38.716,77,7.7,43.60572,3.91322,23.145,0,354.8718,9.5,5,1393263458,-1.026566,-0.02871704,-0.0186615,-16.28837,34.06879,-40.47842,263.2887,262.5777,26,-0.006127135,0.1346414,-0.02366245,1.547118,-1.594016,-0.01891211,-0.005510745,0.1705611,-0.02428657,0.02951993,0.05625381,0.1530718,3
2014-02-24 18:37:38.830,78,7.8,43.60572,3.91322,23.145,0,354.8718,9.5,5,1393263458,-1.037247,-0.02688599,0.06410217,-16.01428,32.92694,-40.53532,263.2723,262.5613,26,0.02486167,-0.1789216,-0.003880758,1.546885,-1.590231,-0.01793941,-0.01777083,0.1240083,-0.02277736,0.04377869,-0.046686,-0.09869985,3
2014-02-24 18:37:38.933,79,7.9,43.60572,3.91322,23.145,0,354.8718,9.5,5,1393263458,-1.037247,-0.02688599,0.06410217,-15.46611,32.49195,-40.99046,263.2723,262.5613,26,0.03223037,-0.1007389,-0.01395789,1.547517,-1.595147,-0.01852147,0.02058676,-0.1113719,-0.01307281,0.004781099,0.07728953,0.0354553,3
2014-02-24 18:37:39.096,80,8,43.60572,3.91322,23.145,0,354.8718,9.5,5,1393263458,-0.9470978,-0.0003509521,0.01226807,-15.79502,33.14444,-40.42153,263.2737,262.5627,26,0.03559155,-0.09472758,0.02590084,1.547918,-1.593694,-0.01834627,0.02394801,-0.1053606,0.02678592,0.03554983,-0.04974782,-0.07980748,3
2014-02-24 18:37:39.234,81,8.1,43.60572,3.91322,23.145,0,354.8718,9.5,5,1393263458,-1.045578,0.07406616,-0.06936646,-15.19203,32.98132,-40.47842,263.2688,262.5578,26,0.02044828,0.09344766,0.043862,1.548273,-1.594735,-0.01859265,0.008804795,0.08281472,0.04474707,0.05244293,-0.01894253,-0.01166378,3
2014-02-24 18:37:39.508,82,8.2,43.60572,3.91322,23.145,0,354.8718,9.5,5,1393263458,-1.046005,-0.08651733,-0.07014465,-14.31496,32.32883,-39.7957,263.263,262.552,26,0.02101074,-0.01577843,-0.009029182,1.548793,-1.594737,-0.01830963,0.009367352,-0.02641127,-0.008144111,-0.04864138,-0.0401592,0.01169536,3
2014-02-24 18:37:39.624,83,8.3,43.60572,3.91322,23.145,0,354.8718,9.5,5,1393263459,-0.9549866,0.03964233,0.00604248,-15.95947,32.65507,-40.81979,263.2613,262.5503,26,0.02111301,0.01921524,-0.02696637,1.548953,-1.593338,-0.01794625,0.009469649,0.008582427,-0.0260813,-0.003604132,0.04130459,-0.07861237,3
2014-02-24 18:37:39.798,84,8.400001,43.60572,3.91322,23.145,0,354.8718,9.5,5,1393263459,-0.979187,0.008087158,-0.02226257,-16.61728,32.87256,-41.61629,263.2572,262.5462,26,0.02911634,0.08666832,0.03814579,1.549487,-1.593765,-0.01850954,0.01781982,-0.002414741,0.008125929,-0.1539842,-0.06352191,-0.06539796,3
2014-02-24 18:37:40.014,85,8.5,43.60572,3.91322,23.145,0,354.8718,9.5,5,1393263459,-0.9519806,-0.01600647,0.03962708,-15.84983,32.43758,-41.5025,263.254,262.543,26,0.02334261,0.0137997,0.002435461,1.549887,-1.593064,-0.01876761,0.007630377,-0.05649149,0.05899949,-0.0198179,0.04489316,-0.07076979,3
2014-02-24 18:37:40.199,86,8.6,43.60572,3.91322,23.145,0,354.8718,9.5,5,1393263459,-0.9759064,0.04484558,-0.03128052,-14.04087,31.94821,-40.08017,263.2376,262.5266,26,0.01743705,0.02256789,-0.02938079,1.550395,-1.586009,-0.01737666,0.005826892,0.0164702,-0.03324116,0.02605474,-0.01964935,-0.0744142,3
2014-02-24 18:37:40.322,87,8.7,43.60572,3.91322,23.145,0,354.8718,9.5,5,1393263459,-1.023911,0.07496643,-0.01548767,-14.80831,31.07822,-39.05609,263.2331,262.5221,26,0.0229426,-0.02656343,0.0579613,1.550571,-1.586082,-0.01772605,0.005794166,0.01197401,-0.02850526,-0.005812844,0.006795749,-0.05358195,3
2014-02-24 18:37:40.529,88,8.8,43.60572,3.91322,23.145,0,354.8718,9.5,5,1393263459,-0.9331207,-0.01135254,-0.08596802,-15.13721,31.83945,-39.05608,263.2297,262.5187,26,0.01556245,0.1284682,0.03408846,1.550687,-1.58645,-0.01816975,0.01129977,-0.03715726,0.05883684,0.01606986,-0.07885295,-0.04331498,3
2014-02-24 18:37:40.636,89,8.900001,43.60572,3.91322,23.145,0,354.8718,9.5,5,1393263460,-0.929184,0.05305481,0.007202148,-15.0824,32.32883,-39.90948,263.2139,262.5029,26,0.02323102,-0.04609,0.02530749,1.550912,-1.583371,-0.02242057,0.003919882,0.1178879,0.03498844,0.003224929,-0.002032951,-0.04588094,3
2014-02-24 18:37:40.750,90,9,43.60572,3.91322,23.145,0,354.8718,9.5,5,1393263460,-0.9486847,0.05290222,-0.07589722,-14.58904,32.6007,-39.85259,263.2039,262.4929,26,0.01601252,0.02614372,-0.005967079,1.551077,-1.58239,-0.02244783,0.01158849,-0.05667031,0.02620747,0.06656015,-0.03379848,-0.09755813,3
2014-02-24 18:37:40.861,91,9.1,43.60572,3.91322,23.145,0,354.8718,9.5,5,1393263460,-1.025513,0.05802917,-0.01731873,-14.04087,32.6007,-39.96638,263.1979,262.4869,26,0.027144,0.04202255,-0.0154,1.551339,-1.583175,-0.02526776,0.004370048,0.01556546,-0.005052723,0.07042024,0.02778974,-0.005172442,3
2014-02-24 18:37:40.936,92,9.2,43.60572,3.91322,23.145,0,354.8718,9.5,5,1393263460,-0.9742737,0.01785278,-0.03887939,-13.71197,32.05695,-39.39745,263.1922,262.4812,26,0.01604714,-0.02030394,-0.003167297,1.551474,-1.581422,-0.02545069,0.01531357,0.03151209,-0.01450543,0.05093503,0.02745428,-0.08651897,3
2014-02-24 18:37:41.072,93,9.3,43.60572,3.91322,23.145,0,354.8718,9.5,5,1393263460,-0.9742737,0.01785278,-0.03887939,-13.98606,32.32882,-39.90948,263.1844,262.4734,26,0.0242385,0.03224901,0.0409762,1.551869,-1.579383,-0.0282962,0.01240842,0.02174896,0.04188205,0.003240207,-0.04902912,-0.07178507,3
2014-02-24 18:37:41.187,94,9.400001,43.60572,3.91322,23.145,0,354.8718,9.5,5,1393263460,-0.9866486,0.06428528,0.004501343,-14.64386,32.32883,-38.99919,263.1768,262.4658,26,0.02053484,-0.02323848,0.05086718,1.552151,-1.580581,-0.02882197,0.008704816,-0.03373848,0.05177302,-0.02101676,-0.02056298,-0.001342491,3
2014-02-24 18:37:41.270,95,9.5,43.60572,3.91322,23.145,0,354.8718,9.5,5,1393263460,-0.9826508,0.01248169,-0.1169586,-15.02758,32.1657,-39.96638,263.1728,262.4618,26,0.009666475,0.1779809,-0.005163869,1.552207,-1.578473,-0.03121743,-0.002163594,0.1674826,-0.004245242,0.01283477,0.03307292,-0.003171338,3
2014-02-24 18:37:41.478,96,9.6,43.60572,3.91322,23.145,0,354.8718,9.5,5,1393263460,-1.069305,0.07327271,0.02397156,-14.91795,32.70944,-40.08017,263.155,262.444,26,0.03072595,-0.1763287,0.03134327,1.552442,-1.57969,-0.03149661,0.01889594,-0.1868269,0.0322619,0.01681374,-0.01900971,-0.1258475,3
2014-02-24 18:37:41.592,97,9.7,43.60572,3.91322,23.145,0,354.8718,9.5,5,1393263460,-0.9886017,0.05644226,-0.1222076,-13.71197,32.27446,-39.73881,263.1461,262.4351,26,0.02364781,0.0950096,-0.04762451,1.55269,-1.580815,-0.0340413,0.01181748,0.08450694,-0.04669347,-0.06993493,0.03923798,0.01395862,3
2014-02-24 18:37:41.685,98,9.8,43.60572,3.91322,23.145,0,354.8718,9.5,5,1393263461,-1.005096,0.076828,0.02175903,-13.38307,32.3832,-40.08017,263.1404,262.4294,26,0.009775932,0.04995158,0.0007789746,1.552555,-1.578765,-0.03421656,-0.002054367,0.03944894,0.001710016,0.05375,-0.07023589,-0.09292522,3
2014-02-24 18:37:41.905,99,9.900001,43.60572,3.91322,23.145,0,354.8718,9.5,5,1393263461,-1.068039,0.05735779,-0.1046143,-12.78008,31.56759,-40.25085,263.1231,262.4121,26,0.02059236,0.1000992,0.02502865,1.552899,-1.581438,-0.03504386,0.008762171,0.08959662,0.02595969,-0.09284891,-0.06296027,0.01773071,3
2014-02-24 18:37:42.044,100,10,43.60572,3.91322,23.145,0,354.8718,9.5,5,1393263461,-1.087616,0.04267883,0.01228333,-13.65715,32.43757,-39.34055,263.1158,262.4048,26,0.02060222,0.01744956,0.03639343,1.553027,-1.580081,-0.03503972,0.008772069,0.006947056,0.03732445,-0.01097184,-0.05068807,-0.1000075,3
2014-02-24 18:37:42.147,101,10.1,43.60572,3.91322,23.145,0,354.8718,9.5,5,1393263461,-1.087616,0.04267883,0.01228333,-13.98606,32.22007,-38.77161,263.1096,262.3987,26,0.01016156,0.0450471,-0.04609346,1.553337,-1.582286,-0.03531989,0.01026321,-0.1449926,0.02826385,-0.06872859,0.02204524,-0.1160963,3
2014-02-24 18:37:42.237,102,10.2,43.60572,3.91322,23.145,0,354.8718,9.5,5,1393263461,-1.006378,0.0536499,-0.01124573,-13.43789,32.11133,-39.56812,263.1049,262.3939,26,0.0247381,-0.06333131,-0.006183328,1.553566,-1.582331,-0.0354849,-0.001668511,0.03454467,-0.04516244,-0.08831198,0.007201384,0.0007557297,3
2014-02-24 18:37:42.447,103,10.3,43.60572,3.91322,23.145,0,354.8718,9.5,5,1393263461,-1.008453,0.07131958,-0.05622864,-14.86313,32.22008,-40.13706,263.0821,262.3711,26,0.03074113,0.05799193,-0.006136456,1.553765,-1.583053,-0.03580878,0.01290809,-0.07383369,-0.005252308,-0.007094298,0.01784877,-0.0234938,3
2014-02-24 18:37:42.543,104,10.4,43.60572,3.91322,23.145,0,354.8718,9.5,5,1393263461,-1.080627,0.0894165,0.01202393,-14.53422,32.11133,-40.59221,263.0726,262.3616,26,0.02935123,-0.1173309,0.04013916,1.553943,-1.582658,-0.03589197,0.01891114,0.04748956,-0.005205438,-0.06879906,-0.05166186,-0.02329753,3
2014-02-24 18:37:42.638,105,10.5,43.60572,3.91322,23.145,0,354.8718,9.5,5,1393263461,-1.079025,0.02923584,-0.02748108,-14.42459,31.89383,-41.16114,263.0631,262.3521,26,0.01711507,0.1123143,-0.003278351,1.554235,-1.584357,-0.03618395,0.0175213,-0.1278332,0.04107018,-0.01519652,-0.05842337,-0.06526297,3
2014-02-24 18:37:42.767,106,10.6,43.60572,3.91322,23.145,0,354.8718,9.5,5,1393263461,-1.029022,0.07911682,-0.01170349,-13.98606,32.11133,-40.93357,263.0583,262.3474,26,0.009805759,-0.03384931,0.009808955,1.55445,-1.584227,-0.03592673,0.005285191,0.101812,-0.002347343,0.01392827,0.001724429,0.03227882,3
2014-02-24 18:37:42.849,107,10.7,43.60572,3.91322,23.145,0,354.8718,9.5,5,1393263462,-0.9705048,0.0657959,-0.01383972,-13.93124,32.6007,-39.05609,263.041,262.33,26,0.02133485,-0.0002460761,-0.05140939,1.554567,-1.58399,-0.03564967,-0.002024077,-0.04435154,0.01073996,0.04754118,-0.03629825,-0.05751206,3
2014-02-24 18:37:42.977,108,10.8,43.60572,3.91322,23.145,0,354.8718,9.5,5,1393263462,-0.9928741,0.02851868,0.004699707,-14.26014,31.94821,-39.16987,263.0308,262.3198,26,0.02361105,-0.05438521,-0.0203588,1.554729,-1.58449,-0.03548468,0.009505046,-0.01074828,-0.05047839,-0.02974543,0.04363959,-0.02538819,3
2014-02-24 18:37:43.098,109,10.9,43.60572,3.91322,23.145,0,354.8718,9.5,5,1393263462,-1.01651,-0.05827332,-0.07098389,-14.64385,31.45884,-38.20268,263.0269,262.3159,26,0.01317412,0.08988861,0.03092276,1.554956,-1.585031,-0.03578059,0.01178129,-0.06488737,-0.0194278,0.02875394,0.03002295,-0.02806457,3
2014-02-24 18:37:43.213,110,11,43.60572,3.91322,23.145,0,354.8718,9.5,5,1393263462,-1.01651,-0.05827332,-0.07098389,-14.26014,32.27445,-39.16987,263.0134,262.3024,26,0.01925545,-0.02999225,0.05795944,1.555071,-1.583836,-0.03646784,0.007425782,-0.04049434,0.05889043,0.09290861,0.001656693,-0.06783985,3
2014-02-24 18:37:43.385,111,11.1,43.60572,3.91322,23.145,0,354.8718,9.5,5,1393263462,-0.996521,0.03016663,-0.05482483,-13.87642,32.32883,-39.90948,262.9956,262.2846,26,0.01570999,0.0004024036,0.03533988,1.555071,-1.583836,-0.03646784,0.007425782,-0.04049434,0.05889043,0.09290861,0.001656693,-0.06783985,3
2014-02-24 18:37:43.515,112,11.2,43.60572,3.91322,23.145,0,354.8718,9.5,5,1393263462,-0.996521,0.03016663,-0.05482483,-13.71197,32.49195,-40.19395,262.9903,262.2793,26,0.009406019,0.09899157,0.03900945,1.555442,-1.578591,-0.0309039,-0.002421643,0.08852107,0.03990519,0.03683041,-0.04994195,-0.009209425,3
2014-02-24 18:37:43.618,113,11.3,43.60572,3.91322,23.145,0,354.8718,9.5,5,1393263462,-1.041351,0.06497192,-0.07023621,-14.04087,32.49195,-40.6491,262.9868,262.2758,26,0.005091432,0.03383333,-0.02608992,1.555589,-1.573405,-0.03097267,-0.006735555,0.02338536,-0.02519431,0.002995989,-0.0008010878,-0.05743212,3
2014-02-24 18:37:43.829,114,11.4,43.60572,3.91322,23.145,0,354.8718,9.5,5,1393263462,-1.064056,-0.004150391,-0.04852295,-13.93124,32.27446,-40.42153,262.98,262.269,26,0.02175057,0.03112436,0.04448278,1.555806,-1.573785,-0.02914998,0.009924589,0.02067837,0.04535908,-0.04229941,-0.05240025,-0.004314854,3
2014-02-24 18:37:43.939,115,11.5,43.60572,3.91322,23.145,0,354.8718,9.5,5,1393263463,-1.034607,0.1070862,-0.0226593,-14.04087,32.70944,-40.42153,262.9606,262.2496,26,0.02051992,0.08884945,0.03569568,1.555802,-1.571975,-0.02955841,0.008693985,0.0784035,0.03657198,-0.06449391,-0.0337045,-0.0497008,3
2014-02-24 18:37:44.048,116,11.6,43.60572,3.91322,23.145,0,354.8718,9.5,5,1393263463,-1.07692,0.07006836,-0.027771,-15.13722,32.49195,-38.9423,262.9513,262.2403,26,0.0117741,-0.02655678,0.06958494,1.5558,-1.572559,-0.03015959,-5.18027e-05,-0.0370027,0.07046123,0.02705528,-0.04825194,-0.03644485,3
2014-02-24 18:37:44.137,117,11.7,43.60572,3.91322,23.145,0,354.8718,9.5,5,1393263463,-1.07692,0.07006836,-0.027771,-14.7535,32.43758,-39.68191,262.9453,262.2343,26,-0.008773251,0.06461574,0.009842244,1.555839,-1.571374,-0.03512324,-0.01102789,0.04206565,0.04614733,0.04973708,-0.05635625,0.009874611,3
2014-02-24 18:37:44.263,118,11.8,43.60572,3.91322,23.145,0,354.8718,9.5,5,1393263463,-1.05275,0.02171326,-0.02615356,-14.36977,32.05695,-39.85259,262.9415,262.2305,26,-0.008773251,0.06461574,0.009842244,1.555581,-1.569772,-0.0359305,-0.02060005,0.05417748,0.01074352,0.003260295,0.02798104,-0.07745268,3
2014-02-24 18:37:44.468,119,11.9,43.60572,3.91322,23.145,0,354.8718,9.5,5,1393263463,-1.05275,0.02171326,-0.02615356,-14.31495,32.22009,-40.25085,262.9253,262.2143,26,0.003364638,-0.03021889,0.04490489,1.555623,-1.565514,-0.03476325,-0.007281839,-0.04509858,0.0528858,-0.03929916,-0.04075295,-0.07998659,3
2014-02-24 18:37:44.566,120,12,43.60572,3.91322,23.145,0,354.8718,9.5,5,1393263463,-1.026947,0.02334595,0.01017761,-13.98605,32.22008,-40.706,262.9219,262.2109,26,0.0006114618,0.1081579,0.05995148,1.555412,-1.566208,-0.03585076,-0.008460498,-0.04063055,0.04579246,-0.05340273,-0.01412983,-0.02156794,3
2014-02-24 18:37:44.692,121,12.1,43.60572,3.91322,23.145,0,354.8718,9.5,5,1393263463,-1.067581,0.1047363,-0.03668213,-13.65715,32.54632,-39.34055,262.9173,262.2063,26,-0.003113502,-0.06051368,0.08971631,1.555139,-1.566298,-0.03624872,-0.01121341,0.09774164,0.06083445,-0.02761404,-0.01289484,0.01467273,3
2014-02-24 18:37:44.789,122,12.2,43.60572,3.91322,23.145,0,354.8718,9.5,5,1393263463,-1.018875,0.06510925,0.01679993,-13.54752,31.89383,-38.54404,262.9131,262.2021,26,-0.01641226,0.03990401,0.04520343,1.554697,-1.566197,-0.03717973,-0.01493833,-0.07092989,0.09059926,-0.06828284,0.06756517,-0.03208573,3
2014-02-24 18:37:44.899,123,12.3,43.60572,3.91322,23.145,0,354.8718,12.76767,10,1393263464,-1.033081,0.057724,-0.08372498,-14.31495,32.11133,-39.68192,262.9,262.189,26,-0.01494966,0.0940253,0.008322911,1.554388,-1.567067,-0.03804409,-0.02823706,0.02948782,0.04608639,0.0456104,0.07449866,0.01898585,3
2014-02-24 18:37:45.017,124,12.4,43.60572,3.91322,23.145,0,354.8718,12.76767,10,1393263464,-1.038437,0.09527588,-0.01094055,-15.68538,32.1657,-40.76289,262.8831,262.1721,26,-0.01738272,-0.03733885,0.02483211,1.553776,-1.566317,-0.03996577,-0.02677504,0.08360279,0.009213964,-0.02905257,0.1037674,-0.03887461,3
2014-02-24 18:37:45.149,125,12.5,43.60572,3.91322,23.145,0,354.8718,12.76767,10,1393263464,-1.025192,0.1826477,-0.02993774,-15.79502,32.49195,-39.96638,262.8791,262.1681,26,-0.01582344,-0.001425058,-0.02125442,1.553353,-1.566889,-0.04059201,-0.02920805,-0.04776131,0.02572316,0.009956595,0.06430805,-0.04260483,3
2014-02-24 18:37:45.267,126,12.6,43.60572,3.91322,23.145,0,354.8718,12.76767,10,1393263464,-1.06163,0.07929993,-0.08616638,-15.90466,32.05696,-40.64911,262.8695,262.1585,26,-0.01722426,0.09722056,-0.01519174,1.5528,-1.566996,-0.04076485,-0.02764874,-0.01184749,-0.02036338,-0.03927488,0.05452231,-0.007143732,3
2014-02-24 18:37:45.414,127,12.7,43.60572,3.91322,23.145,0,354.8718,12.76767,10,1393263464,-1.005905,0.06878662,0.01400757,-14.69868,32.1657,-40.87668,262.8642,262.1532,26,-0.01375123,-0.04291205,0.03313319,1.552354,-1.566434,-0.04087177,-0.02904952,0.08679818,-0.01430069,-0.0260369,0.1417873,-0.02557897,3
2014-02-24 18:37:45.579,128,12.8,43.60572,3.91322,23.145,0,354.8718,12.76767,10,1393263464,-0.9833832,0.03271484,-0.07614136,-14.04087,33.14443,-39.96638,262.8407,262.1297,26,-0.0260806,0.06116562,0.02026799,1.551749,-1.565965,-0.0407389,-0.02557643,-0.05333439,0.03402423,-0.06247162,0.03857229,-0.08133949,3
2014-02-24 18:37:45.685,129,12.9,43.60572,3.91322,23.145,0,354.8718,9.5,5,1393263465,-0.9833832,0.03271484,-0.07614136,-15.19203,31.89384,-40.13706,262.8332,262.1222,26,-0.03081384,0.0292455,0.001764344,1.550436,-1.56536,-0.04057923,-0.04263896,0.01882323,0.002655378,-0.003187842,0.06958511,-0.04420491,3
2014-02-24 18:37:45.885,130,13,43.60572,3.91322,23.145,0,354.8718,9.5,5,1393263465,-0.9883118,0.02494812,-0.06248474,-16.12392,32.3832,-39.85259,262.8237,262.1127,26,-0.03119813,0.05792242,0.04488572,1.549046,-1.562408,-0.04076789,-0.0375906,-0.024256,-0.006262694,0.05026616,0.005477528,-0.02161788,3
2014-02-24 18:37:46.102,131,13.1,43.60572,3.91322,23.145,0,354.8718,9.5,5,1393263465,-0.961731,0.07661438,-0.00894165,-15.79502,31.83946,-40.53532,262.8123,262.1013,26,-0.0372222,-0.05319158,0.04591237,1.547525,-1.560142,-0.04656383,-0.04303813,0.0101887,0.05320558,0.01054764,-0.02159888,-0.05184248,3
2014-02-24 18:37:46.219,132,13.2,43.60572,3.91322,23.145,0,354.8718,9.5,5,1393263465,-0.961731,0.07661438,-0.00894165,-16.50764,31.89383,-39.90948,262.8092,262.0982,26,-0.03833993,0.03838467,0.0180264,1.545942,-1.561565,-0.05122399,-0.05016737,0.0279947,0.0189642,-0.04537582,0.06816792,0.000964565,3
2014-02-24 18:37:46.400,133,13.3,43.60572,3.91322,23.145,0,354.8718,9.5,5,1393263465,-1.013367,0.0566864,-0.02693176,-16.0691,31.35009,-40.13706,262.796,262.085,26,-0.03564428,-0.03314411,-1.917476e-05,1.545942,-1.561565,-0.05122399,-0.05016737,0.0279947,0.0189642,-0.04537582,0.06816792,0.000964565,3
2014-02-24 18:37:46.588,134,13.4,43.60572,3.91322,23.145,0,354.8718,9.5,5,1393263465,-0.9862518,0.09321594,0.0004119873,-14.86313,32.32883,-40.81979,262.782,262.071,26,-0.04800481,-0.03431723,0.006911968,1.543046,-1.561646,-0.055741,-0.05983321,-0.04470184,0.007869444,-0.01496162,0.0009742591,-0.01779596,3
2014-02-24 18:37:46.729,135,13.5,43.60572,3.91322,23.145,0,354.8718,9.5,5,1393263465,-1.003586,0.07624817,-0.05133057,-15.0824,33.30756,-40.59221,262.7775,262.0665,26,-0.05194363,0.0655167,0.02232315,1.541849,-1.561258,-0.05596708,-0.06377198,0.05513213,0.02328062,0.012137,0.03727807,0.009935358,3
2014-02-24 18:37:46.898,136,13.6,43.60572,3.91322,23.145,0,354.8718,12.85593,10,1393263466,-1.054352,0.09840393,-0.04234314,-14.86313,32.65507,-39.7957,262.7703,262.0593,26,-0.06306791,0.05981966,0.02931075,1.539617,-1.560131,-0.06141027,-0.07508288,0.04950082,0.03026724,-0.08641444,0.07772744,-0.01379991,3
2014-02-24 18:37:47.128,137,13.7,43.60572,3.91322,23.145,0,354.8718,12.85593,10,1393263466,-0.963913,0.1178284,0.02680969,-15.46612,32.6007,-39.73881,262.7555,262.0445,26,-0.07771371,0.05506006,0.01513927,1.536964,-1.558588,-0.06742889,-0.07727294,-0.07076766,0.0150224,-0.05431825,0.095052,0.001560155,3
2014-02-24 18:37:47.245,138,13.8,43.60572,3.91322,23.145,0,354.8718,12.85593,10,1393263466,-0.9648895,0.1802826,-0.03117371,-16.34319,32.70944,-40.42153,262.7399,262.0289,26,-0.07771371,0.05506006,0.01513927,1.535387,-1.558211,-0.07280008,-0.08973168,0.04475573,0.01614761,-0.05088448,0.100543,-0.003927669,3
2014-02-24 18:37:47.362,139,13.9,43.60572,3.91322,23.145,0,354.8718,12.85593,10,1393263466,-0.9648895,0.1802826,-0.03117371,-17.05581,32.65507,-40.81978,262.7361,262.0251,26,-0.07302707,-0.03749997,0.05831977,1.53389,-1.557984,-0.07348149,-0.07890216,-0.006994248,0.05429606,-0.01079127,0.01310196,-0.01333005,3
2014-02-24 18:37:47.514,140,14,43.60572,3.91322,23.145,0,354.8718,12.85593,10,1393263466,-0.9898529,0.1514587,0.04089355,-16.45282,33.25319,-39.85259,262.7337,262.0227,26,-0.1012829,0.08110284,0.03460139,1.532308,-1.558789,-0.07411801,-0.08504497,-0.04780423,0.0593281,0.0322931,0.1062324,-0.01919929,3
2014-02-24 18:37:47.641,141,14.1,43.60572,3.91322,23.145,0,354.8718,12.85593,10,1393263466,-0.9685059,0.08334351,-0.06561279,-16.61728,32.76382,-40.81978,262.7311,262.0201,26,-0.08736607,0.07064594,-0.0109139,1.530425,-1.561284,-0.08034123,-0.1133054,0.07078914,0.03564197,0.006876381,0.07120392,0.05037479,3
2014-02-24 18:37:47.741,142,14.2,43.60572,3.91322,23.145,0,354.8718,12.95407,10,1393263467,-0.9144135,0.1222839,-0.03115845,-16.56246,32.49195,-40.87668,262.7304,262.0194,26,-0.07856432,-0.06871435,-0.0129885,1.528588,-1.559368,-0.08022244,-0.09938845,0.06033225,-0.009873322,0.005217962,0.1265897,-0.03296624,3
2014-02-24 18:37:47.851,143,14.3,43.60572,3.91322,23.145,0,354.8718,12.95407,10,1393263467,-1.005188,0.1813202,-0.01409912,-29.06076,33.47068,-52.48294,262.7274,262.0164,26,-0.0973364,0.08201417,0.002956375,1.527068,-1.55669,-0.08566231,-0.09058551,-0.07901029,-0.01192054,-0.07928165,0.1197494,-0.07124256,3
2014-02-24 18:37:47.963,144,14.4,43.60572,3.91322,23.145,0,354.8718,12.95407,10,1393263467,-0.9817505,0.1257935,-0.03096008,-28.51258,33.68818,-50.43478,262.7262,262.0152,26,-0.0987628,0.04597016,0.03262239,1.525173,-1.557069,-0.08623286,-0.1093576,0.07171828,0.004024335,-0.06240337,0.05460579,0.01483556,3
2014-02-24 18:37:48.048,145,14.5,43.60572,3.91322,23.145,0,354.8718,12.95407,10,1393263467,-0.9434509,0.1609192,-0.02102661,-27.79996,33.19881,-48.78487,262.7249,262.0139,26,-0.09865201,-0.05036251,0.03356355,1.523136,-1.555893,-0.08633155,-0.1107839,0.03567428,0.03369035,-0.009022884,0.09509584,0.0007483537,3
2014-02-24 18:37:48.153,146,14.6,43.60572,3.91322,23.145,0,354.8718,12.95407,10,1393263467,-0.9685516,0.1516876,-0.132431,-23.7435,33.30756,-46.39535,262.7158,262.0048,26,-0.1083672,0.1599977,-0.01433393,1.521321,-1.555179,-0.09228769,-0.1106736,-0.06064634,0.0346632,0.01387259,0.03363671,-0.01540979,3
2014-02-24 18:37:48.327,147,14.7,43.60572,3.91322,23.145,0,354.8718,12.95407,10,1393263467,-0.9445801,0.2283936,-0.07615662,-21.49599,33.25319,-46.33845,262.7102,261.9992,26,-0.1057339,0.01834146,-0.01409904,1.519245,-1.553826,-0.0920663,-0.1203888,0.1497139,-0.01323429,0.05217058,0.06898289,-0.004128961,3
2014-02-24 18:37:48.516,148,14.8,43.60572,3.91322,23.145,0,354.8718,12.95407,10,1393263467,-1.015442,0.1387939,0.007522583,-15.68538,31.29572,-38.9423,262.7433,262.0323,26,-0.09692841,-0.107437,-0.01865251,1.517402,-1.548633,-0.09620763,-0.1177527,0.00807871,-0.01297653,0.02657952,0.05562834,-0.1103721,3
2014-02-24 18:37:48.749,149,14.9,43.60572,3.91322,23.145,0,354.8718,13.08015,10,1393263468,-0.9402618,0.1381989,-0.1183624,-17.05581,32.98131,-39.90948,262.6654,261.9544,26,-0.1183562,0.1215738,0.00940735,1.510826,-1.549907,-0.09786449,-0.1303764,0.1113087,0.01053628,-0.02628805,0.07225931,-0.09484325,3
2014-02-24 18:37:48.978,150,15,43.60572,3.91322,23.145,0,354.8718,13.08015,10,1393263468,-0.9839172,0.2128754,0.001495361,-17.16545,33.19881,-40.13706,262.6486,261.9376,26,-0.09251795,-0.1419939,0.04976702,1.508735,-1.551518,-0.09817344,-0.1045381,-0.152259,0.05089595,0.05473809,0.04018303,-0.09917822,3
2014-02-24 18:37:49.317,151,15.1,43.60572,3.91322,23.145,0,354.8718,13.08015,10,1393263468,-1.007736,0.256073,-0.03125,-14.80831,33.03569,-39.39745,262.6087,261.8977,26,-0.1131122,0.04771373,-0.01914893,1.506524,-1.552307,-0.09811635,-0.1213926,0.02837367,-0.02258813,0.0111031,0.1149164,0.01989518,3
2014-02-24 18:37:49.610,152,15.2,43.60572,3.91322,23.145,0,354.8718,13.08015,10,1393263468,-0.9767609,0.2223358,-0.04820251,-17.71361,32.43757,-38.0889,262.5739,261.8629,26,-0.1093126,-0.01349424,-0.02320758,1.504261,-1.551748,-0.09822167,-0.1251322,0.03744871,-0.01802001,-0.01273661,0.1580092,-0.01229481,3
2014-02-24 18:37:49.729,153,15.3,43.60572,3.91322,23.145,0,354.8718,13.08015,10,1393263468,-0.9264374,0.1410675,-0.09284973,-17.6588,33.25319,-39.73881,262.5634,261.8524,26,-0.115566,0.1076865,-0.02914271,1.501877,-1.552233,-0.0981691,-0.1213326,-0.02375922,-0.02207867,0.01825295,0.1243243,-0.02972949,3
2014-02-24 18:37:49.844,154,15.4,43.60572,3.91322,23.145,0,354.8718,9.5,5,1393263469,-0.9579163,0.1001434,-0.05488586,-17.54917,33.57943,-40.53532,262.5551,261.8441,26,-0.1108482,-0.03697879,0.01806529,1.499387,-1.55152,-0.09809989,-0.1275859,0.09742156,-0.0280138,0.008709571,0.09483693,-0.005506504,3
2014-02-24 18:37:49.920,155,15.5,43.60572,3.91322,23.145,0,354.8718,9.5,5,1393263469,-1.039688,0.2487793,-0.03448486,-17.38472,33.30756,-40.36464,262.5471,261.8362,26,-0.1282797,-0.01540293,0.03997618,1.496976,-1.551362,-0.09829975,-0.1228681,-0.04724369,0.01919419,-0.04412374,0.06123653,-0.09835145,3
2014-02-24 18:37:50.087,156,15.6,43.60572,3.91322,23.145,0,354.8718,9.5,5,1393263469,-1.000137,0.2358246,-0.04856873,-17.05581,33.41631,-40.13706,262.5183,261.8073,26,-0.129072,0.02491334,-0.02025307,1.494539,-1.553401,-0.09855065,-0.1402995,-0.02566779,0.04110508,0.05627655,0.1134771,0.01932395,3
2014-02-24 18:37:50.172,157,15.7,43.60572,3.91322,23.145,0,354.8718,9.5,5,1393263469,-0.9645081,0.1721039,-0.05940247,-17.38471,33.09006,-39.90948,262.5057,261.7947,26,-0.1291497,-0.03953756,-0.000855141,1.491894,-1.552796,-0.0984594,-0.1410918,0.0146485,-0.01912418,-0.04469254,0.1504789,-0.01657274,3
2014-02-24 18:37:50.295,158,15.8,43.60572,3.91322,23.145,0,354.8718,9.5,5,1393263469,-1.01683,0.1684418,-0.1740723,-16.94617,33.19881,-39.45434,262.5005,261.7895,26,-0.1377874,0.1302275,-0.02371092,1.489341,-1.553856,-0.09874902,-0.1411695,-0.04980236,0.0002737501,-0.005151831,0.137236,-0.03171213,3
2014-02-24 18:37:50.464,159,15.9,43.60572,3.91322,23.145,0,354.8718,9.5,5,1393263469,-1.01683,0.1684418,-0.1740723,-16.61727,32.98132,-39.45434,262.4907,261.7797,26,-0.1451902,0.0158522,-0.003895938,1.48354,-1.551502,-0.09886076,-0.1572099,0.005587469,-0.002767055,-0.07632652,0.06528641,-0.1096458,3
2014-02-24 18:37:50.565,160,16,43.60572,3.91322,23.145,0,354.8718,9.5,5,1393263469,-1.017349,0.2177582,-0.1149597,-17.76844,33.36193,-40.99046,262.4734,261.7624,26,-0.1269659,-0.1535858,0.0507223,1.48354,-1.551502,-0.09886076,-0.1572099,0.005587469,-0.002767055,-0.07632652,0.06528641,-0.1096458,3
2014-02-24 18:37:50.767,161,16.1,43.60572,3.91322,23.145,0,354.8718,9.5,5,1393263470,-1.025009,0.2341919,-0.07322693,-17.87807,33.47068,-40.53532,262.4699,261.7589,26,-0.1342979,-0.1152028,0.03854633,1.474901,-1.553251,-0.09996334,-0.1463175,-0.1254674,0.0396752,-0.02249457,0.1179612,-0.09750248,3
2014-02-24 18:37:50.915,162,16.2,43.60572,3.91322,23.145,0,354.8718,9.5,5,1393263470,-1.011871,0.2709198,-0.06066895,-17.38472,33.52505,-39.90948,262.4676,261.7566,26,-0.1489248,-0.03734045,0.00949124,1.472054,-1.555689,-0.1007832,-0.1609443,-0.04760502,0.01062011,-0.03019702,0.1335792,-0.0581967,3
2014-02-24 18:37:51.051,163,16.3,43.60572,3.91322,23.145,0,354.8718,9.5,5,1393263470,-0.9972687,0.254425,-0.08769226,-17.49435,32.87256,-40.25085,262.467,261.756,26,-0.1515352,0.1258027,0.003181678,1.469084,-1.554398,-0.1012982,-0.1635546,0.1155381,0.004310539,-0.01713138,0.1697948,-0.04435509,3
2014-02-24 18:37:51.153,164,16.4,43.60572,3.91322,23.145,0,354.8718,9.5,5,1393263470,-1.021866,0.2467041,0.007644653,-17.43953,33.03569,-39.73881,262.4659,261.7549,26,-0.1466813,-0.02126002,0.03399125,1.466019,-1.55449,-0.1018683,-0.1587007,-0.0315245,0.03512011,-0.002585023,0.1527329,-0.07147104,3
2014-02-24 18:37:51.301,165,16.5,43.60572,3.91322,23.145,0,354.8718,9.5,5,1393263470,-1.048203,0.2279663,-0.04223633,-18.86477,33.25318,-39.62502,262.4594,261.7484,26,-0.1590395,-0.06545305,0.04720826,1.463006,-1.556304,-0.1024133,-0.1710588,-0.0757175,0.04833711,0.04772594,0.1363368,-0.04332313,3
2014-02-24 18:37:51.468,166,16.6,43.60572,3.91322,23.145,0,354.8718,9.5,5,1393263470,-1.048203,0.2279663,-0.04223633,-16.61728,33.30756,-39.34055,262.4558,261.7448,26,-0.1687184,0.04751532,0.009646236,1.459756,-1.555066,-0.1025288,-0.1747574,0.1699168,0.01188402,0.06313743,0.1843176,0.03574238,3
2014-02-24 18:37:51.565,167,16.7,43.60572,3.91322,23.145,0,354.8718,9.5,5,1393263470,-1.048111,0.2922974,0.02651978,-16.12392,32.70944,-39.51123,262.4547,261.7437,26,-0.1687184,0.04751532,0.009646236,1.456335,-1.552748,-0.1023043,-0.1807377,0.03725095,0.01077508,-0.001636878,0.08491635,-0.1423707,3
2014-02-24 18:37:51.694,168,16.8,43.60572,3.91322,23.145,0,354.8718,9.5,5,1393263470,-1.048111,0.2922974,0.02651978,-16.39801,33.09006,-39.7957,262.4537,261.7427,26,-0.1735768,0.06665999,-0.001145426,1.453125,-1.55455,-0.102583,-0.1681151,-0.1157918,-0.005206287,-0.02476696,0.1593613,-0.09036119,3
2014-02-24 18:37:51.808,169,16.9,43.60572,3.91322,23.145,0,354.8718,9.5,5,1393263470,-0.9951324,0.2444916,-0.07296753,-16.61728,33.30756,-39.7957,262.4531,261.7421,26,-0.1896304,0.2488532,-0.02184724,1.449822,-1.555877,-0.1029818,-0.185596,0.05639569,-1.658917e-05,-0.05351961,0.1894975,0.04135993,3
2014-02-24 18:37:52.045,170,17,43.60572,3.91322,23.145,0,354.8718,9.5,5,1393263471,-1.129578,0.2385864,-0.06665039,-17.11063,31.94821,-39.73881,262.4468,261.7358,26,-0.1710181,-0.04322577,0.003470898,1.442666,-1.551266,-0.1022827,-0.185601,-0.02171076,0.01247682,-0.02259744,0.1740491,-0.1622895,3
2014-02-24 18:37:52.139,171,17.1,43.60572,3.91322,23.145,0,354.8718,9.5,5,1393263471,-1.053802,0.3203888,-0.109314,-17.22026,32.81819,-39.16987,262.4425,261.7315,26,-0.1906086,0.09576993,-0.02974724,1.43927,-1.553089,-0.1023433,-0.1830371,-0.05348996,0.004599722,0.06751804,0.1498494,-0.04778584,3
2014-02-24 18:37:52.278,172,17.2,43.60572,3.91322,23.145,0,354.8718,9.5,5,1393263471,-1.010361,0.1337128,-0.1289062,-16.61727,32.76382,-38.99919,262.4386,261.7276,26,-0.1842505,0.08203229,-0.05301422,1.435683,-1.552583,-0.102003,-0.2026276,0.0855058,-0.02861842,-5.27282e-05,0.117824,-0.04099529,3
2014-02-24 18:37:52.479,173,17.3,43.60572,3.91322,23.145,0,354.8718,9.5,5,1393263471,-0.876236,0.1370239,-0.08250427,-15.68538,33.14443,-39.51123,262.4207,261.7097,26,-0.1772203,0.01677392,0.0004796353,1.43199,-1.551128,-0.1015876,-0.1962695,0.07176816,-0.0518854,-0.05915049,0.2189758,-0.0897483,3
2014-02-24 18:37:52.575,174,17.4,43.60572,3.91322,23.145,0,354.8718,9.5,5,1393263471,-0.9560242,0.1714325,-0.1246338,-16.23355,33.36193,-40.08017,262.4104,261.6994,26,-0.1836268,-0.05094814,0.04213786,1.428393,-1.551149,-0.1018766,-0.1892392,0.006509849,0.001608446,-0.01573765,0.03201235,-0.1093622,3
2014-02-24 18:37:52.684,175,17.5,43.60572,3.91322,23.145,0,354.8718,9.5,5,1393263471,-0.9333038,0.2250061,-0.09649658,-15.57575,33.47068,-39.73881,262.4065,261.6955,26,-0.1944997,0.1208417,-0.008913334,1.42482,-1.553237,-0.1021815,-0.1956457,-0.06121216,0.04326667,0.1183947,0.03502013,-0.06503727,3
2014-02-24 18:37:52.772,176,17.6,43.60572,3.91322,23.145,0,354.8718,9.5,5,1393263471,-0.9257507,0.209671,-0.1226044,-16.34319,32.92694,-39.39745,262.4032,261.6922,26,-0.1771548,0.0506717,-0.01275441,1.421044,-1.551583,-0.1020572,-0.2065185,0.1105777,-0.00778453,0.04940739,0.1505765,-0.04259481,3
2014-02-24 18:37:52.896,177,17.7,43.60572,3.91322,23.145,0,354.8718,9.5,5,1393263472,-0.9257507,0.209671,-0.1226044,-17.9877,31.94821,-38.9423,262.3944,261.6834,26,-0.1931271,0.02222381,-0.01145719,1.41367,-1.550946,-0.1021363,-0.2051458,0.0119599,-0.01032839,0.04393956,0.1041721,-0.1197201,3
2014-02-24 18:37:52.988,178,17.8,43.60572,3.91322,23.145,0,354.8718,9.5,5,1393263472,-0.9101868,0.2195892,-0.08349609,-18.42624,32.49195,-38.9423,262.3824,261.6714,26,-0.1895281,0.02800234,-0.0009214538,1.40991,-1.5514,-0.102261,-0.2015468,0.01773847,0.0002073354,0.06226151,0.1199935,-0.06348527,3
2014-02-24 18:37:53.187,179,17.9,43.60572,3.91322,23.145,0,354.8718,9.5,5,1393263472,-0.883728,0.2215729,-0.1397705,-18.70033,33.30756,-39.45434,262.3815,261.6705,26,-0.1921886,0.08591331,0.01491157,1.402244,-1.549657,-0.1021239,-0.2042072,0.07564951,0.01604035,0.07968114,0.1623205,-0.1057724,3
2014-02-24 18:37:53.398,180,18,43.60572,3.91322,23.145,0,354.8718,9.5,5,1393263472,-0.9381409,0.3069305,-0.09519958,-17.49435,34.0688,-39.11298,262.3764,261.6654,26,-0.1954811,-0.04582288,-0.014335,1.399173,-1.540865,-0.1131312,-0.2074927,-0.0560306,-0.01314665,0.1094344,0.1086829,-0.110035,3
2014-02-24 18:37:53.534,181,18.1,43.60572,3.91322,23.145,0,354.8718,9.5,5,1393263472,-1.034958,0.3045654,-0.171402,-17.76843,33.14444,-38.71472,262.3359,261.6249,26,-0.2077979,0.113714,-0.0371266,1.39524,-1.540831,-0.1132928,-0.2199889,0.1035436,-0.03593321,-0.04640759,0.1424273,-0.04477051,3
2014-02-24 18:37:53.637,182,18.2,43.60572,3.91322,23.145,0,354.8718,9.5,5,1393263472,-1.116791,0.260025,-0.09591675,-17.38471,32.87257,-39.45434,262.3224,261.6114,26,-0.205538,0.09015573,-0.008719988,1.391891,-1.53347,-0.1188033,-0.2177237,0.08001961,-0.007499252,0.01336246,0.08835464,-0.08614495,3
2014-02-24 18:37:53.754,183,18.3,43.60572,3.91322,23.145,0,354.8718,9.5,5,1393263472,-1.036148,0.2598724,-0.1437683,-17.76843,32.49195,-38.37336,262.3386,261.6276,26,-0.201955,0.01897023,0.0154711,1.387951,-1.534044,-0.1188201,-0.2141406,0.008834154,0.01669183,0.07072411,0.131856,-0.09809782,3
2014-02-24 18:37:53.835,184,18.4,43.60572,3.91322,23.145,0,354.8718,13.42424,10,1393263473,-1.036148,0.2598724,-0.1437683,-17.87807,32.3832,-38.71472,262.3896,261.6786,26,-0.2053185,-0.009678992,-0.02064775,1.383886,-1.533291,-0.1185596,-0.2151438,0.07539403,-0.02150642,-0.124509,0.141743,-0.05868335,3
2014-02-24 18:37:53.932,185,18.5,43.60572,3.91322,23.145,0,354.8718,13.42424,10,1393263473,-1.007416,0.3094025,-0.1047821,-17.9877,33.25319,-39.16987,262.3896,261.6786,26,-0.2115088,0.1057794,-0.03356542,1.380483,-1.527511,-0.125722,-0.2174999,-0.01977953,-0.01939131,-0.04496994,0.1344813,-0.1008383,3
2014-02-24 18:37:54.068,186,18.6,43.60572,3.91322,23.145,0,354.8718,13.42424,10,1393263473,-1.106094,0.2532654,-0.1718445,-18.91959,33.30756,-38.8854,262.3887,261.6777,26,-0.2105096,0.07544922,-0.00041279,1.376294,-1.52736,-0.1256709,-0.22369,0.09567893,-0.03230897,-0.01623774,0.184062,-0.06170197,3
2014-02-24 18:37:54.152,187,18.7,43.60572,3.91322,23.145,0,354.8718,13.42424,10,1393263473,-1.065598,0.3184357,-0.1386871,-18.42624,33.25319,-40.76289,262.3882,261.6772,26,-0.2079196,-0.06956044,0.005719671,1.372084,-1.526329,-0.1257303,-0.2226908,0.06534875,0.0008436516,0.03513199,0.09383894,-0.09064852,3
2014-02-24 18:37:54.285,188,18.8,43.60572,3.91322,23.145,0,354.8718,13.42424,10,1393263473,-1.07341,0.3183746,-0.171936,-18.59069,33.30756,-40.02327,262.3878,261.6768,26,-0.2226523,0.100101,-0.0242321,1.368937,-1.519762,-0.1324142,-0.2200931,-0.07961677,0.007006116,-0.006504493,0.1147528,-0.126772,3
2014-02-24 18:37:54.476,189,18.9,43.60572,3.91322,23.145,0,354.8718,13.42424,10,1393263473,-1.164047,0.2572479,-0.07598877,-16.39801,33.74255,-39.45434,262.353,261.642,26,-0.2224001,-0.05297241,-0.03212038,1.364652,-1.519429,-0.1324089,-0.2348256,0.09004475,-0.02294566,-0.08803312,0.1518674,-0.07500531,3
2014-02-24 18:37:54.579,190,19,43.60572,3.91322,23.145,0,354.8718,13.42424,10,1393263473,-1.054901,0.2355804,-0.1145477,-16.78173,33.47068,-39.05609,262.359,261.648,26,-0.2248387,0.06811674,-0.05326828,1.360324,-1.519801,-0.1320862,-0.2345734,-0.06302865,-0.03083395,-0.03050718,0.09603498,-0.07526407,3
2014-02-24 18:37:54.684,191,19.1,43.60572,3.91322,23.145,0,354.8718,13.49494,10,1393263474,-0.9304352,0.2601624,-0.19133,-17.3299,32.81819,-39.16987,262.3588,261.6478,26,-0.2347622,0.1292491,-0.05278732,1.355847,-1.520693,-0.1318949,-0.237012,0.05806052,-0.05198185,-0.1739768,0.1257351,-0.02634098,3
2014-02-24 18:37:54.778,192,19.2,43.60572,3.91322,23.145,0,354.8718,13.49494,10,1393263474,-1.085693,0.2125244,-0.08547974,-17.93288,32.76382,-40.47842,262.3586,261.6476,26,-0.2337534,-0.02448377,-0.002006692,1.351089,-1.519371,-0.1313944,-0.2469354,0.1191929,-0.05150089,-0.06483156,0.1045638,-0.06358782,3
2014-02-24 18:37:54.878,193,19.3,43.60572,3.91322,23.145,0,354.8718,13.49494,10,1393263474,-1.085693,0.2125244,-0.08547974,-18.91959,33.6338,-40.25085,262.358,261.647,26,-0.239562,-0.0588287,-0.03926644,1.343055,-1.512017,-0.1381914,-0.2517267,-0.06883354,-0.0379437,-0.09849355,0.1211897,-0.09788122,3
2014-02-24 18:37:54.979,194,19.4,43.60572,3.91322,23.145,0,354.8718,13.49494,10,1393263474,-0.9355011,0.226181,-0.2154999,-18.86477,33.14443,-40.53532,262.3555,261.6445,26,-0.2517532,0.1232258,-0.08104638,1.343055,-1.512017,-0.1381914,-0.2517267,-0.06883354,-0.0379437,-0.09849355,0.1211897,-0.09788122,3
2014-02-24 18:37:55.082,195,19.5,43.60572,3.91322,23.145,0,354.8718,13.49494,10,1393263474,-0.9355011,0.226181,-0.2154999,-17.6588,33.36193,-40.08017,262.306,261.595,26,-0.2469126,0.1029663,-0.06789783,1.333195,-1.510788,-0.1374176,-0.2590771,0.09296158,-0.0665751,-0.0957284,0.1904681,-0.1332196,3
2014-02-24 18:37:55.176,196,19.6,43.60572,3.91322,23.145,0,354.8718,13.49494,10,1393263474,-1.000458,0.2654114,-0.0975647,-17.05581,33.52505,-39.68192,262.3041,261.5931,26,-0.2336383,-0.09138744,-0.006045109,1.329836,-1.503134,-0.1424301,-0.2457903,-0.1013392,-0.004701003,0.05210782,0.08423202,-0.1485738,3
